[{"divipola":"13683","Departamento":"Bolívar","Municipio":"Santa Rosa","proyecto":"Expresiones Artísticas y Culturales","Latitud":10.444396,"Longitud":-75.369824,"Población":22912,"fuente":"Inversión","ejecutado":0.0},{"divipola":"15403","Departamento":"Boyacá","Municipio":"La Uvita","proyecto":"Expresiones Artísticas y Culturales","Latitud":6.31616,"Longitud":-72.559982,"Población":3220,"fuente":"Inversión","ejecutado":0.0},{"divipola":"20045","Departamento":"Cesar","Municipio":"Becerril","proyecto":"Expresiones Artísticas y Culturales","Latitud":9.704495,"Longitud":-73.278839,"Población":25208,"fuente":"Inversión","Subregión PDET":"Sierra Nevada - Perijá","ejecutado":0.0},{"divipola":"68533","Departamento":"Santander","Municipio":"Páramo","proyecto":"Expresiones Artísticas y Culturales","Latitud":6.416465,"Longitud":-73.170394,"Población":4925,"fuente":"Inversión","ejecutado":0.0},{"divipola":"68689","Departamento":"Santander","Municipio":"San Vicente de Chucurí","proyecto":"Expresiones Artísticas y Culturales","Latitud":6.880383,"Longitud":-73.411024,"Población":36697,"fuente":"Inversión","ejecutado":0.0},{"divipola":"13244","Departamento":"Bolívar","Municipio":"El Carmen de Bolívar","proyecto":"Expresiones Artísticas y Culturales","Latitud":9.718573,"Longitud":-75.121231,"Población":76550,"fuente":"Inversión","Subregión PDET":"Montes de María","ejecutado":0.0},{"divipola":"13780","Departamento":"Bolívar","Municipio":"Talaigua Nuevo","proyecto":"Expresiones Artísticas y Culturales","Latitud":9.304889,"Longitud":-74.567628,"Población":13986,"fuente":"Inversión","ejecutado":0.0},{"divipola":"17513","Departamento":"Caldas","Municipio":"Pácora","proyecto":"Expresiones Artísticas y Culturales","Latitud":5.527172,"Longitud":-75.459621,"Población":15791,"fuente":"Inversión","ejecutado":0.0},{"divipola":"25312","Departamento":"Cundinamarca","Municipio":"Granada","proyecto":"Expresiones Artísticas y Culturales","Latitud":4.519763,"Longitud":-74.350766,"Población":8478,"fuente":"Inversión","ejecutado":0.0},{"divipola":"52354","Departamento":"Nariño","Municipio":"Imués","proyecto":"Expresiones Artísticas y Culturales","Latitud":1.054815,"Longitud":-77.496063,"Población":7994,"fuente":"Inversión","ejecutado":0.0},{"divipola":"73319","Departamento":"Tolima","Municipio":"Guamo","proyecto":"Expresiones Artísticas y Culturales","Latitud":4.030992,"Longitud":-74.968135,"Población":34880,"fuente":"Inversión","ejecutado":0.0},{"divipola":"76892","Departamento":"Valle del Cauca","Municipio":"Yumbo","proyecto":"Expresiones Artísticas y Culturales","Latitud":3.540097,"Longitud":-76.499893,"Población":108869,"fuente":"Inversión","ejecutado":12000000.0},{"divipola":"08141","Departamento":"Atlántico","Municipio":"Candelaria","proyecto":"Expresiones Artísticas y Culturales","Latitud":10.461903,"Longitud":-74.879717,"Población":17732,"fuente":"Inversión","ejecutado":0.0},{"divipola":"15162","Departamento":"Boyacá","Municipio":"Cerinza","proyecto":"Expresiones Artísticas y Culturales","Latitud":5.955939,"Longitud":-72.947918,"Población":3945,"fuente":"Inversión","ejecutado":0.0},{"divipola":"15537","Departamento":"Boyacá","Municipio":"Paz de Río","proyecto":"Expresiones Artísticas y Culturales","Latitud":5.987645,"Longitud":-72.749137,"Población":4515,"fuente":"Inversión","ejecutado":0.0},{"divipola":"19622","Departamento":"Cauca","Municipio":"Rosas","proyecto":"Expresiones Artísticas y Culturales","Latitud":2.260941,"Longitud":-76.740336,"Población":12271,"fuente":"Inversión","ejecutado":0.0},{"divipola":"25288","Departamento":"Cundinamarca","Municipio":"Fúquene","proyecto":"Expresiones Artísticas y Culturales","Latitud":5.403997,"Longitud":-73.795855,"Población":5844,"fuente":"Inversión","ejecutado":0.0},{"divipola":"25317","Departamento":"Cundinamarca","Municipio":"Guachetá","proyecto":"Expresiones Artísticas y Culturales","Latitud":5.383378,"Longitud":-73.686972,"Población":16018,"fuente":"Inversión","ejecutado":0.0},{"divipola":"70473","Departamento":"Sucre","Municipio":"Morroa","proyecto":"Expresiones Artísticas y Culturales","Latitud":9.331395,"Longitud":-75.305949,"Población":16565,"fuente":"Inversión","Subregión PDET":"Montes de María","ejecutado":0.0},{"divipola":"73461","Departamento":"Tolima","Municipio":"Murillo","proyecto":"Expresiones Artísticas y Culturales","Latitud":4.875071,"Longitud":-75.170787,"Población":4479,"fuente":"Inversión","ejecutado":0.0},{"divipola":"05079","Departamento":"Antioquia","Municipio":"Barbosa","proyecto":"Expresiones Artísticas y Culturales","Latitud":6.439195,"Longitud":-75.331627,"Población":56103,"fuente":"Inversión","ejecutado":0.0},{"divipola":"08372","Departamento":"Atlántico","Municipio":"Juan de Acosta","proyecto":"Expresiones Artísticas y Culturales","Latitud":10.828909,"Longitud":-75.035031,"Población":23569,"fuente":"Inversión","ejecutado":0.0},{"divipola":"15861","Departamento":"Boyacá","Municipio":"Ventaquemada","proyecto":"Expresiones Artísticas y Culturales","Latitud":5.368739,"Longitud":-73.522368,"Población":17012,"fuente":"Inversión","ejecutado":0.0},{"divipola":"41357","Departamento":"Huila","Municipio":"Íquira","proyecto":"Expresiones Artísticas y Culturales","Latitud":2.649359,"Longitud":-75.634497,"Población":10053,"fuente":"Inversión","ejecutado":0.0},{"divipola":"52287","Departamento":"Nariño","Municipio":"Funes","proyecto":"Expresiones Artísticas y Culturales","Latitud":1.001159,"Longitud":-77.448913,"Población":7535,"fuente":"Inversión","ejecutado":0.0},{"divipola":"54125","Departamento":"Norte de Santander","Municipio":"Cácota","proyecto":"Expresiones Artísticas y Culturales","Latitud":7.268705,"Longitud":-72.642059,"Población":3181,"fuente":"Inversión","ejecutado":0.0},{"divipola":"25799","Departamento":"Cundinamarca","Municipio":"Tenjo","proyecto":"Expresiones Artísticas y Culturales","Latitud":4.871887,"Longitud":-74.14392,"Población":26834,"fuente":"Inversión","ejecutado":0.0},{"divipola":"52885","Departamento":"Nariño","Municipio":"Yacuanquer","proyecto":"Expresiones Artísticas y Culturales","Latitud":1.114556,"Longitud":-77.402824,"Población":11496,"fuente":"Inversión","ejecutado":0.0},{"divipola":"76520","Departamento":"Valle del Cauca","Municipio":"Palmira","proyecto":"Expresiones Artísticas y Culturales","Latitud":3.532355,"Longitud":-76.298568,"Población":359549,"fuente":"Inversión","ejecutado":140354234.0},{"divipola":"86757","Departamento":"Putumayo","Municipio":"San Miguel","proyecto":"Expresiones Artísticas y Culturales","Latitud":0.343481,"Longitud":-76.912055,"Población":21293,"fuente":"Inversión","Subregión PDET":"Putumayo","ejecutado":0.0},{"divipola":"23419","Departamento":"Córdoba","Municipio":"Los Córdobas","proyecto":"Expresiones Artísticas y Culturales","Latitud":8.892098,"Longitud":-76.35518,"Población":20339,"fuente":"Inversión","ejecutado":0.0},{"divipola":"25099","Departamento":"Cundinamarca","Municipio":"Bojacá","proyecto":"Expresiones Artísticas y Culturales","Latitud":4.741758,"Longitud":-74.348492,"Población":12189,"fuente":"Inversión","ejecutado":0.0},{"divipola":"27099","Departamento":"Chocó","Municipio":"Bojayá","proyecto":"Expresiones Artísticas y Culturales","Latitud":6.556303,"Longitud":-76.883465,"Población":13719,"fuente":"Inversión","Subregión PDET":"Chocó","ejecutado":20788396.0},{"divipola":"41020","Departamento":"Huila","Municipio":"Algeciras","proyecto":"Expresiones Artísticas y Culturales","Latitud":2.521674,"Longitud":-75.315389,"Población":24328,"fuente":"Inversión","Subregión PDET":"Cuenca del Caguán y Piedemonte Caqueteño","ejecutado":0.0},{"divipola":"50686","Departamento":"Meta","Municipio":"San Juanito","proyecto":"Expresiones Artísticas y Culturales","Latitud":4.458181,"Longitud":-73.676699,"Población":1415,"fuente":"Inversión","ejecutado":0.0},{"divipola":"52224","Departamento":"Nariño","Municipio":"Cuaspud Carlosama","proyecto":"Expresiones Artísticas y Culturales","Latitud":0.862978,"Longitud":-77.728947,"Población":9675,"fuente":"Inversión","ejecutado":36000000.0},{"divipola":"68092","Departamento":"Santander","Municipio":"Betulia","proyecto":"Expresiones Artísticas y Culturales","Latitud":6.899525,"Longitud":-73.283669,"Población":6279,"fuente":"Inversión","ejecutado":0.0},{"divipola":"05091","Departamento":"Antioquia","Municipio":"Betania","proyecto":"Expresiones Artísticas y Culturales","Latitud":5.744735,"Longitud":-75.975655,"Población":10892,"fuente":"Inversión","ejecutado":0.0},{"divipola":"05660","Departamento":"Antioquia","Municipio":"San Luis","proyecto":"Expresiones Artísticas y Culturales","Latitud":6.043012,"Longitud":-74.993562,"Población":13791,"fuente":"Inversión","ejecutado":0.0},{"divipola":"05847","Departamento":"Antioquia","Municipio":"Urrao","proyecto":"Expresiones Artísticas y Culturales","Latitud":6.317343,"Longitud":-76.133951,"Población":32139,"fuente":"Inversión","ejecutado":0.0},{"divipola":"18205","Departamento":"Caquetá","Municipio":"Curillo","proyecto":"Expresiones Artísticas y Culturales","Latitud":1.033473,"Longitud":-75.919205,"Población":8109,"fuente":"Inversión","Subregión PDET":"Cuenca del Caguán y Piedemonte Caqueteño","ejecutado":0.0},{"divipola":"25307","Departamento":"Cundinamarca","Municipio":"Girardot","proyecto":"Expresiones Artísticas y Culturales","Latitud":4.313103,"Longitud":-74.797949,"Población":123329,"fuente":"Inversión","ejecutado":0.0},{"divipola":"27450","Departamento":"Chocó","Municipio":"Medio San Juan","proyecto":"Expresiones Artísticas y Culturales","Latitud":5.098291,"Longitud":-76.694409,"Población":11764,"fuente":"Inversión","Subregión PDET":"Chocó","ejecutado":53508264.0},{"divipola":"52210","Departamento":"Nariño","Municipio":"Contadero","proyecto":"Expresiones Artísticas y Culturales","Latitud":0.910458,"Longitud":-77.549409,"Población":7618,"fuente":"Inversión","ejecutado":0.0},{"divipola":"52435","Departamento":"Nariño","Municipio":"Mallama","proyecto":"Expresiones Artísticas y Culturales","Latitud":1.141037,"Longitud":-77.864549,"Población":9440,"fuente":"Inversión","ejecutado":0.0},{"divipola":"68229","Departamento":"Santander","Municipio":"Curití","proyecto":"Expresiones Artísticas y Culturales","Latitud":6.605102,"Longitud":-73.069388,"Población":13326,"fuente":"Inversión","ejecutado":0.0},{"divipola":"70742","Departamento":"Sucre","Municipio":"San Luis de Sincé","proyecto":"Expresiones Artísticas y Culturales","Latitud":9.244307,"Longitud":-75.145995,"Población":33430,"fuente":"Inversión","ejecutado":0.0},{"divipola":"50711","Departamento":"Meta","Municipio":"Vistahermosa","proyecto":"Expresiones Artísticas y Culturales","Latitud":3.125577,"Longitud":-73.750911,"Población":19392,"fuente":"Inversión","Subregión PDET":"Macarena - Guaviare","ejecutado":0.0},{"divipola":"08675","Departamento":"Atlántico","Municipio":"Santa Lucía","proyecto":"Expresiones Artísticas y Culturales","Latitud":10.323273,"Longitud":-74.958971,"Población":17912,"fuente":"Inversión","ejecutado":4204800.0},{"divipola":"15022","Departamento":"Boyacá","Municipio":"Almeida","proyecto":"Expresiones Artísticas y Culturales","Latitud":4.970857,"Longitud":-73.378933,"Población":2048,"fuente":"Inversión","ejecutado":0.0},{"divipola":"15332","Departamento":"Boyacá","Municipio":"Güicán de la Sierra","proyecto":"Expresiones Artísticas y Culturales","Latitud":6.462864,"Longitud":-72.411763,"Población":4545,"fuente":"Inversión","ejecutado":0.0},{"divipola":"15531","Departamento":"Boyacá","Municipio":"Pauna","proyecto":"Expresiones Artísticas y Culturales","Latitud":5.656323,"Longitud":-73.978449,"Población":7627,"fuente":"Inversión","ejecutado":0.0},{"divipola":"52788","Departamento":"Nariño","Municipio":"Tangua","proyecto":"Expresiones Artísticas y Culturales","Latitud":1.095178,"Longitud":-77.393244,"Población":14162,"fuente":"Inversión","ejecutado":0.0},{"divipola":"70670","Departamento":"Sucre","Municipio":"Sampués","proyecto":"Expresiones Artísticas y Culturales","Latitud":9.183271,"Longitud":-75.380119,"Población":53227,"fuente":"Inversión","ejecutado":0.0},{"divipola":"05172","Departamento":"Antioquia","Municipio":"Chigorodó","proyecto":"Expresiones Artísticas y Culturales","Latitud":7.666199,"Longitud":-76.681276,"Población":62235,"fuente":"Inversión","Subregión PDET":"Urabá Antioqueño","ejecutado":19200000.0},{"divipola":"13490","Departamento":"Bolívar","Municipio":"Norosí","proyecto":"Expresiones Artísticas y Culturales","Latitud":8.526298,"Longitud":-74.038043,"Población":10879,"fuente":"Inversión","ejecutado":0.0},{"divipola":"18094","Departamento":"Caquetá","Municipio":"Belén de los Andaquíes","proyecto":"Expresiones Artísticas y Culturales","Latitud":1.415812,"Longitud":-75.872405,"Población":11557,"fuente":"Inversión","Subregión PDET":"Cuenca del Caguán y Piedemonte Caqueteño","ejecutado":4204800.0},{"divipola":"52320","Departamento":"Nariño","Municipio":"Guaitarilla","proyecto":"Expresiones Artísticas y Culturales","Latitud":1.129567,"Longitud":-77.549818,"Población":11990,"fuente":"Inversión","ejecutado":0.0},{"divipola":"68255","Departamento":"Santander","Municipio":"El Playón","proyecto":"Expresiones Artísticas y Culturales","Latitud":7.470715,"Longitud":-73.20287,"Población":14214,"fuente":"Inversión","ejecutado":0.0},{"divipola":"73067","Departamento":"Tolima","Municipio":"Ataco","proyecto":"Expresiones Artísticas y Culturales","Latitud":3.590591,"Longitud":-75.382545,"Población":20116,"fuente":"Inversión","Subregión PDET":"Sur del Tolima","ejecutado":7982382.0},{"divipola":"05360","Departamento":"Antioquia","Municipio":"Itagüí","proyecto":"Expresiones Artísticas y Culturales","Latitud":6.169598,"Longitud":-75.614359,"Población":299348,"fuente":"Inversión","ejecutado":117155548.0},{"divipola":"20621","Departamento":"Cesar","Municipio":"La Paz","proyecto":"Expresiones Artísticas y Culturales","Latitud":10.387552,"Longitud":-73.171365,"Población":32358,"fuente":"Inversión","Subregión PDET":"Sierra Nevada - Perijá","ejecutado":0.0},{"divipola":"94888","Departamento":"Guainía","Municipio":"Morichal (Anm)","proyecto":"Expresiones Artísticas y Culturales","Latitud":2.265132,"Longitud":-69.919404,"fuente":"Inversión","ejecutado":0.0},{"divipola":"05036","Departamento":"Antioquia","Municipio":"Angelópolis","proyecto":"Expresiones Artísticas y Culturales","Latitud":6.109719,"Longitud":-75.711389,"Población":6109,"fuente":"Inversión","ejecutado":0.0},{"divipola":"05264","Departamento":"Antioquia","Municipio":"Entrerríos","proyecto":"Expresiones Artísticas y Culturales","Latitud":6.566273,"Longitud":-75.517685,"Población":12062,"fuente":"Inversión","ejecutado":0.0},{"divipola":"68861","Departamento":"Santander","Municipio":"Vélez","proyecto":"Expresiones Artísticas y Culturales","Latitud":6.010953,"Longitud":-73.666299,"Población":26342,"fuente":"Inversión","ejecutado":32000000.0},{"divipola":"70235","Departamento":"Sucre","Municipio":"Galeras","proyecto":"Expresiones Artísticas y Culturales","Latitud":9.159583,"Longitud":-75.048576,"Población":24554,"fuente":"Inversión","ejecutado":0.0},{"divipola":"70678","Departamento":"Sucre","Municipio":"San Benito Abad","proyecto":"Expresiones Artísticas y Culturales","Latitud":8.930108,"Longitud":-75.031089,"Población":31306,"fuente":"Inversión","ejecutado":0.0},{"divipola":"18001","Departamento":"Caquetá","Municipio":"Florencia","proyecto":"Expresiones Artísticas y Culturales","Latitud":1.618234,"Longitud":-75.609796,"Población":179233,"fuente":"Inversión","Subregión PDET":"Cuenca del Caguán y Piedemonte Caqueteño","ejecutado":40236800.0},{"divipola":"25200","Departamento":"Cundinamarca","Municipio":"Cogua","proyecto":"Expresiones Artísticas y Culturales","Latitud":5.061842,"Longitud":-73.978497,"Población":26870,"fuente":"Inversión","ejecutado":0.0},{"divipola":"25506","Departamento":"Cundinamarca","Municipio":"Venecia","proyecto":"Expresiones Artísticas y Culturales","Latitud":4.089056,"Longitud":-74.478301,"Población":5033,"fuente":"Inversión","ejecutado":0.0},{"divipola":"27580","Departamento":"Chocó","Municipio":"Río Iró","proyecto":"Expresiones Artísticas y Culturales","Latitud":5.1863,"Longitud":-76.472925,"Población":5885,"fuente":"Inversión","ejecutado":0.0},{"divipola":"66400","Departamento":"Risaralda","Municipio":"La Virginia","proyecto":"Expresiones Artísticas y Culturales","Latitud":4.89877,"Longitud":-75.884298,"Población":28540,"fuente":"Inversión","ejecutado":0.0},{"divipola":"68397","Departamento":"Santander","Municipio":"La Paz","proyecto":"Expresiones Artísticas y Culturales","Latitud":6.178509,"Longitud":-73.58959,"Población":5236,"fuente":"Inversión","ejecutado":0.0},{"divipola":"91798","Departamento":"Amazonas","Municipio":"Tarapacá (Anm)","proyecto":"Expresiones Artísticas y Culturales","Latitud":-2.890126,"Longitud":-69.741745,"fuente":"Inversión","ejecutado":0.0},{"divipola":"17013","Departamento":"Caldas","Municipio":"Aguadas","proyecto":"Expresiones Artísticas y Culturales","Latitud":5.610244,"Longitud":-75.45487,"Población":23525,"fuente":"Inversión","ejecutado":0.0},{"divipola":"23182","Departamento":"Córdoba","Municipio":"Chinú","proyecto":"Expresiones Artísticas y Culturales","Latitud":9.105473,"Longitud":-75.399633,"Población":51639,"fuente":"Inversión","ejecutado":0.0},{"divipola":"41801","Departamento":"Huila","Municipio":"Teruel","proyecto":"Expresiones Artísticas y Culturales","Latitud":2.740968,"Longitud":-75.567034,"Población":8699,"fuente":"Inversión","ejecutado":0.0},{"divipola":"54109","Departamento":"Norte de Santander","Municipio":"Bucarasica","proyecto":"Expresiones Artísticas y Culturales","Latitud":8.041299,"Longitud":-72.868231,"Población":7263,"fuente":"Inversión","ejecutado":0.0},{"divipola":"86865","Departamento":"Putumayo","Municipio":"Valle del Guamuez","proyecto":"Expresiones Artísticas y Culturales","Latitud":0.423506,"Longitud":-76.906751,"Población":35984,"fuente":"Inversión","Subregión PDET":"Putumayo","ejecutado":0.0},{"divipola":"13667","Departamento":"Bolívar","Municipio":"San Martín de Loba","proyecto":"Expresiones Artísticas y Culturales","Latitud":8.937273,"Longitud":-74.039064,"Población":16079,"fuente":"Inversión","ejecutado":0.0},{"divipola":"23000","Departamento":"Córdoba","Municipio":"Departamental","proyecto":"Expresiones Artísticas y Culturales","Latitud":8.74513,"Longitud":-75.875576,"fuente":"Inversión","ejecutado":0.0},{"divipola":"47551","Departamento":"Magdalena","Municipio":"Pivijay","proyecto":"Expresiones Artísticas y Culturales","Latitud":10.460707,"Longitud":-74.613312,"Población":42136,"fuente":"Inversión","ejecutado":0.0},{"divipola":"50400","Departamento":"Meta","Municipio":"Lejanías","proyecto":"Expresiones Artísticas y Culturales","Latitud":3.526355,"Longitud":-74.02447,"Población":12550,"fuente":"Inversión","ejecutado":0.0},{"divipola":"52215","Departamento":"Nariño","Municipio":"Córdoba","proyecto":"Expresiones Artísticas y Culturales","Latitud":0.854564,"Longitud":-77.517897,"Población":16338,"fuente":"Inversión","ejecutado":0.0},{"divipola":"52490","Departamento":"Nariño","Municipio":"Olaya Herrera","proyecto":"Expresiones Artísticas y Culturales","Latitud":2.347457,"Longitud":-78.325814,"Población":26469,"fuente":"Inversión","Subregión PDET":"Pacífico y Frontera Nariñense","ejecutado":1362785.0},{"divipola":"52786","Departamento":"Nariño","Municipio":"Taminango","proyecto":"Expresiones Artísticas y Culturales","Latitud":1.570358,"Longitud":-77.2808,"Población":18629,"fuente":"Inversión","ejecutado":0.0},{"divipola":"68001","Departamento":"Santander","Municipio":"Bucaramanga","proyecto":"Expresiones Artísticas y Culturales","Latitud":7.116381,"Longitud":-73.132582,"Población":619703,"fuente":"Inversión","ejecutado":127626993.0},{"divipola":"68209","Departamento":"Santander","Municipio":"Confines","proyecto":"Expresiones Artísticas y Culturales","Latitud":6.357327,"Longitud":-73.240554,"Población":3274,"fuente":"Inversión","ejecutado":0.0},{"divipola":"15204","Departamento":"Boyacá","Municipio":"Cómbita","proyecto":"Expresiones Artísticas y Culturales","Latitud":5.634545,"Longitud":-73.323957,"Población":14040,"fuente":"Inversión","ejecutado":0.0},{"divipola":"25426","Departamento":"Cundinamarca","Municipio":"Machetá","proyecto":"Expresiones Artísticas y Culturales","Latitud":5.080295,"Longitud":-73.607581,"Población":7201,"fuente":"Inversión","ejecutado":0.0},{"divipola":"27006","Departamento":"Chocó","Municipio":"Acandí","proyecto":"Expresiones Artísticas y Culturales","Latitud":8.512178,"Longitud":-77.279951,"Población":15868,"fuente":"Inversión","Subregión PDET":"Chocó","ejecutado":0.0},{"divipola":"44000","Departamento":"La Guajira","Municipio":"Departamental","proyecto":"Expresiones Artísticas y Culturales","Latitud":11.528588,"Longitud":-72.911797,"fuente":"Inversión","ejecutado":0.0},{"divipola":"66687","Departamento":"Risaralda","Municipio":"Santuario","proyecto":"Expresiones Artísticas y Culturales","Latitud":5.072762,"Longitud":-75.962196,"Población":12861,"fuente":"Inversión","ejecutado":0.0},{"divipola":"85015","Departamento":"Casanare","Municipio":"Chámeza","proyecto":"Expresiones Artísticas y Culturales","Latitud":5.214527,"Longitud":-72.87016,"Población":2531,"fuente":"Inversión","ejecutado":0.0},{"divipola":"05190","Departamento":"Antioquia","Municipio":"Cisneros","proyecto":"Expresiones Artísticas y Culturales","Latitud":6.537829,"Longitud":-75.087047,"Población":10422,"fuente":"Inversión","ejecutado":0.0},{"divipola":"05674","Departamento":"Antioquia","Municipio":"San Vicente Ferrer","proyecto":"Expresiones Artísticas y Culturales","Latitud":6.282164,"Longitud":-75.332616,"Población":23546,"fuente":"Inversión","ejecutado":0.0},{"divipola":"05686","Departamento":"Antioquia","Municipio":"Santa Rosa de Osos","proyecto":"Expresiones Artísticas y Culturales","Latitud":6.643366,"Longitud":-75.460723,"Población":39054,"fuente":"Inversión","ejecutado":0.0},{"divipola":"05837","Departamento":"Antioquia","Municipio":"Turbo","proyecto":"Expresiones Artísticas y Culturales","Latitud":8.093955,"Longitud":-76.725988,"Población":134517,"fuente":"Inversión","Subregión PDET":"Urabá Antioqueño","ejecutado":0.0},{"divipola":"17665","Departamento":"Caldas","Municipio":"San José","proyecto":"Expresiones Artísticas y Culturales","Latitud":5.081569,"Longitud":-75.792004,"Población":4953,"fuente":"Inversión","ejecutado":0.0},{"divipola":"25035","Departamento":"Cundinamarca","Municipio":"Anapoima","proyecto":"Expresiones Artísticas y Culturales","Latitud":4.562737,"Longitud":-74.528676,"Población":17713,"fuente":"Inversión","ejecutado":0.0},{"divipola":"44874","Departamento":"La Guajira","Municipio":"Villanueva","proyecto":"Expresiones Artísticas y Culturales","Latitud":10.608774,"Longitud":-72.977583,"Población":33751,"fuente":"Inversión","ejecutado":1892758.0},{"divipola":"76111","Departamento":"Valle del Cauca","Municipio":"Guadalajara de Buga","proyecto":"Expresiones Artísticas y Culturales","Latitud":3.900736,"Longitud":-76.298979,"Población":133690,"fuente":"Inversión","ejecutado":0.0},{"divipola":"91407","Departamento":"Amazonas","Municipio":"La Pedrera (Anm)","proyecto":"Expresiones Artísticas y Culturales","Latitud":-1.319313,"Longitud":-69.588421,"fuente":"Inversión","ejecutado":0.0},{"divipola":"15218","Departamento":"Boyacá","Municipio":"Covarachía","proyecto":"Expresiones Artísticas y Culturales","Latitud":6.500177,"Longitud":-72.738978,"Población":2941,"fuente":"Inversión","ejecutado":0.0},{"divipola":"15806","Departamento":"Boyacá","Municipio":"Tibasosa","proyecto":"Expresiones Artísticas y Culturales","Latitud":5.74723,"Longitud":-72.999449,"Población":14063,"fuente":"Inversión","ejecutado":32000000.0},{"divipola":"70124","Departamento":"Sucre","Municipio":"Caimito","proyecto":"Expresiones Artísticas y Culturales","Latitud":8.789324,"Longitud":-75.117141,"Población":17181,"fuente":"Inversión","ejecutado":10906540.0},{"divipola":"05040","Departamento":"Antioquia","Municipio":"Anorí","proyecto":"Expresiones Artísticas y Culturales","Latitud":7.074703,"Longitud":-75.148355,"Población":19675,"fuente":"Inversión","Subregión PDET":"Bajo Cauca y Nordeste Antioqueño","ejecutado":7982382.0},{"divipola":"05604","Departamento":"Antioquia","Municipio":"Remedios","proyecto":"Expresiones Artísticas y Culturales","Latitud":7.026094,"Longitud":-74.695944,"Población":30501,"fuente":"Inversión","Subregión PDET":"Bajo Cauca y Nordeste Antioqueño","ejecutado":19750280.0},{"divipola":"15514","Departamento":"Boyacá","Municipio":"Páez","proyecto":"Expresiones Artísticas y Culturales","Latitud":5.094621,"Longitud":-73.054496,"Población":3479,"fuente":"Inversión","ejecutado":0.0},{"divipola":"15790","Departamento":"Boyacá","Municipio":"Tasco","proyecto":"Expresiones Artísticas y Culturales","Latitud":5.909821,"Longitud":-72.781011,"Población":6216,"fuente":"Inversión","ejecutado":0.0},{"divipola":"23660","Departamento":"Córdoba","Municipio":"Sahagún","proyecto":"Expresiones Artísticas y Culturales","Latitud":8.943048,"Longitud":-75.445834,"Población":116069,"fuente":"Inversión","ejecutado":0.0},{"divipola":"27135","Departamento":"Chocó","Municipio":"El Cantón del San Pablo","proyecto":"Expresiones Artísticas y Culturales","Latitud":5.335321,"Longitud":-76.726844,"Población":6906,"fuente":"Inversión","ejecutado":0.0},{"divipola":"68377","Departamento":"Santander","Municipio":"La Belleza","proyecto":"Expresiones Artísticas y Culturales","Latitud":5.85925,"Longitud":-73.965494,"Población":6684,"fuente":"Inversión","ejecutado":32000000.0},{"divipola":"76736","Departamento":"Valle del Cauca","Municipio":"Sevilla","proyecto":"Expresiones Artísticas y Culturales","Latitud":4.267033,"Longitud":-75.930941,"Población":43794,"fuente":"Inversión","ejecutado":60865650.0},{"divipola":"95015","Departamento":"Guaviare","Municipio":"Calamar","proyecto":"Expresiones Artísticas y Culturales","Latitud":1.960982,"Longitud":-72.655197,"Población":11618,"fuente":"Inversión","Subregión PDET":"Macarena - Guaviare","ejecutado":19816033.0},{"divipola":"05501","Departamento":"Antioquia","Municipio":"Olaya","proyecto":"Expresiones Artísticas y Culturales","Latitud":6.627524,"Longitud":-75.812301,"Población":3327,"fuente":"Inversión","ejecutado":0.0},{"divipola":"52418","Departamento":"Nariño","Municipio":"Los Andes","proyecto":"Expresiones Artísticas y Culturales","Latitud":1.494587,"Longitud":-77.521303,"Población":9809,"fuente":"Inversión","Subregión PDET":"Alto Patía y Norte del Cauca","ejecutado":22110656.0},{"divipola":"05631","Departamento":"Antioquia","Municipio":"Sabaneta","proyecto":"Expresiones Artísticas y Culturales","Latitud":6.149903,"Longitud":-75.615479,"Población":89647,"fuente":"Inversión","ejecutado":0.0},{"divipola":"15215","Departamento":"Boyacá","Municipio":"Corrales","proyecto":"Expresiones Artísticas y Culturales","Latitud":5.828064,"Longitud":-72.844795,"Población":2674,"fuente":"Inversión","ejecutado":0.0},{"divipola":"15879","Departamento":"Boyacá","Municipio":"Viracachá","proyecto":"Expresiones Artísticas y Culturales","Latitud":5.436833,"Longitud":-73.296894,"Población":3006,"fuente":"Inversión","ejecutado":0.0},{"divipola":"19573","Departamento":"Cauca","Municipio":"Puerto Tejada","proyecto":"Expresiones Artísticas y Culturales","Latitud":3.233254,"Longitud":-76.417673,"Población":44610,"fuente":"Inversión","ejecutado":0.0},{"divipola":"25817","Departamento":"Cundinamarca","Municipio":"Tocancipá","proyecto":"Expresiones Artísticas y Culturales","Latitud":4.964786,"Longitud":-73.912091,"Población":48318,"fuente":"Inversión","ejecutado":0.0},{"divipola":"68615","Departamento":"Santander","Municipio":"Rionegro","proyecto":"Expresiones Artísticas y Culturales","Latitud":7.26501,"Longitud":-73.150147,"Población":27116,"fuente":"Inversión","ejecutado":0.0},{"divipola":"73770","Departamento":"Tolima","Municipio":"Suárez","proyecto":"Expresiones Artísticas y Culturales","Latitud":4.048891,"Longitud":-74.831885,"Población":3934,"fuente":"Inversión","ejecutado":0.0},{"divipola":"05059","Departamento":"Antioquia","Municipio":"Armenia","proyecto":"Expresiones Artísticas y Culturales","Latitud":6.155889,"Longitud":-75.787072,"Población":5404,"fuente":"Inversión","ejecutado":0.0},{"divipola":"44279","Departamento":"La Guajira","Municipio":"Fonseca","proyecto":"Expresiones Artísticas y Culturales","Latitud":10.884301,"Longitud":-72.846662,"Población":51188,"fuente":"Inversión","Subregión PDET":"Sierra Nevada - Perijá","ejecutado":3657065.0},{"divipola":"47555","Departamento":"Magdalena","Municipio":"Plato","proyecto":"Expresiones Artísticas y Culturales","Latitud":9.796769,"Longitud":-74.784679,"Población":70559,"fuente":"Inversión","ejecutado":0.0},{"divipola":"81300","Departamento":"Arauca","Municipio":"Fortul","proyecto":"Expresiones Artísticas y Culturales","Latitud":6.792738,"Longitud":-71.774279,"Población":24198,"fuente":"Inversión","Subregión PDET":"Arauca","ejecutado":7982382.0},{"divipola":"97511","Departamento":"Vaupés","Municipio":"Pacoa (Anm)","proyecto":"Expresiones Artísticas y Culturales","Latitud":0.020698,"Longitud":-71.004339,"fuente":"Inversión","ejecutado":0.0},{"divipola":"05266","Departamento":"Antioquia","Municipio":"Envigado","proyecto":"Expresiones Artísticas y Culturales","Latitud":6.166891,"Longitud":-75.582766,"Población":248304,"fuente":"Inversión","ejecutado":0.0},{"divipola":"05364","Departamento":"Antioquia","Municipio":"Jardín","proyecto":"Expresiones Artísticas y Culturales","Latitud":5.597542,"Longitud":-75.818982,"Población":15513,"fuente":"Inversión","ejecutado":0.0},{"divipola":"15494","Departamento":"Boyacá","Municipio":"Nuevo Colón","proyecto":"Expresiones Artísticas y Culturales","Latitud":5.355317,"Longitud":-73.456759,"Población":5493,"fuente":"Inversión","ejecutado":0.0},{"divipola":"52573","Departamento":"Nariño","Municipio":"Puerres","proyecto":"Expresiones Artísticas y Culturales","Latitud":0.885125,"Longitud":-77.504211,"Población":8924,"fuente":"Inversión","ejecutado":0.0},{"divipola":"68271","Departamento":"Santander","Municipio":"Florián","proyecto":"Expresiones Artísticas y Culturales","Latitud":5.804659,"Longitud":-73.97143,"Población":6084,"fuente":"Inversión","ejecutado":0.0},{"divipola":"73873","Departamento":"Tolima","Municipio":"Villarrica","proyecto":"Expresiones Artísticas y Culturales","Latitud":3.936729,"Longitud":-74.600341,"Población":5228,"fuente":"Inversión","ejecutado":0.0},{"divipola":"76403","Departamento":"Valle del Cauca","Municipio":"La Victoria","proyecto":"Expresiones Artísticas y Culturales","Latitud":4.523603,"Longitud":-76.036529,"Población":12501,"fuente":"Inversión","ejecutado":0.0},{"divipola":"05667","Departamento":"Antioquia","Municipio":"San Rafael","proyecto":"Expresiones Artísticas y Culturales","Latitud":6.293759,"Longitud":-75.02849,"Población":16617,"fuente":"Inversión","ejecutado":4204800.0},{"divipola":"25758","Departamento":"Cundinamarca","Municipio":"Sopó","proyecto":"Expresiones Artísticas y Culturales","Latitud":4.906331,"Longitud":-73.945775,"Población":31775,"fuente":"Inversión","ejecutado":0.0},{"divipola":"63548","Departamento":"Quindío","Municipio":"Pijao","proyecto":"Expresiones Artísticas y Culturales","Latitud":4.335036,"Longitud":-75.703329,"Población":5452,"fuente":"Inversión","ejecutado":0.0},{"divipola":"66318","Departamento":"Risaralda","Municipio":"Guática","proyecto":"Expresiones Artísticas y Culturales","Latitud":5.316251,"Longitud":-75.799324,"Población":12435,"fuente":"Inversión","ejecutado":0.0},{"divipola":"73555","Departamento":"Tolima","Municipio":"Planadas","proyecto":"Expresiones Artísticas y Culturales","Latitud":3.197911,"Longitud":-75.644163,"Población":27453,"fuente":"Inversión","Subregión PDET":"Sur del Tolima","ejecutado":7982382.0},{"divipola":"13440","Departamento":"Bolívar","Municipio":"Margarita","proyecto":"Expresiones Artísticas y Culturales","Latitud":9.15555,"Longitud":-74.280822,"Población":11818,"fuente":"Inversión","ejecutado":0.0},{"divipola":"15621","Departamento":"Boyacá","Municipio":"Rondón","proyecto":"Expresiones Artísticas y Culturales","Latitud":5.357378,"Longitud":-73.208474,"Población":2548,"fuente":"Inversión","ejecutado":0.0},{"divipola":"19022","Departamento":"Cauca","Municipio":"Almaguer","proyecto":"Expresiones Artísticas y Culturales","Latitud":1.913429,"Longitud":-76.85607,"Población":19648,"fuente":"Inversión","ejecutado":0.0},{"divipola":"19355","Departamento":"Cauca","Municipio":"Inzá","proyecto":"Expresiones Artísticas y Culturales","Latitud":2.549183,"Longitud":-76.063503,"Población":31097,"fuente":"Inversión","ejecutado":0.0},{"divipola":"25736","Departamento":"Cundinamarca","Municipio":"Sesquilé","proyecto":"Expresiones Artísticas y Culturales","Latitud":5.04476,"Longitud":-73.796099,"Población":13929,"fuente":"Inversión","ejecutado":32000000.0},{"divipola":"15000","Departamento":"Boyacá","Municipio":"Departamental","proyecto":"Expresiones Artísticas y Culturales","Latitud":5.539898,"Longitud":-73.355543,"fuente":"Inversión","ejecutado":0.0},{"divipola":"15001","Departamento":"Boyacá","Municipio":"Tunja","proyecto":"Expresiones Artísticas y Culturales","Latitud":5.539898,"Longitud":-73.355543,"Población":187286,"fuente":"Inversión","ejecutado":225397912.0},{"divipola":"17495","Departamento":"Caldas","Municipio":"Norcasia","proyecto":"Expresiones Artísticas y Culturales","Latitud":5.574796,"Longitud":-74.889546,"Población":6146,"fuente":"Inversión","ejecutado":0.0},{"divipola":"41349","Departamento":"Huila","Municipio":"Hobo","proyecto":"Expresiones Artísticas y Culturales","Latitud":2.582868,"Longitud":-75.451151,"Población":7841,"fuente":"Inversión","ejecutado":0.0},{"divipola":"52260","Departamento":"Nariño","Municipio":"El Tambo","proyecto":"Expresiones Artísticas y Culturales","Latitud":1.407914,"Longitud":-77.390774,"Población":14900,"fuente":"Inversión","ejecutado":0.0},{"divipola":"68077","Departamento":"Santander","Municipio":"Barbosa","proyecto":"Expresiones Artísticas y Culturales","Latitud":5.932699,"Longitud":-73.616016,"Población":33149,"fuente":"Inversión","ejecutado":0.0},{"divipola":"68406","Departamento":"Santander","Municipio":"Lebrija","proyecto":"Expresiones Artísticas y Culturales","Latitud":7.113351,"Longitud":-73.219524,"Población":46053,"fuente":"Inversión","ejecutado":0.0},{"divipola":"76497","Departamento":"Valle del Cauca","Municipio":"Obando","proyecto":"Expresiones Artísticas y Culturales","Latitud":4.575712,"Longitud":-75.974709,"Población":12640,"fuente":"Inversión","ejecutado":0.0},{"divipola":"15632","Departamento":"Boyacá","Municipio":"Saboyá","proyecto":"Expresiones Artísticas y Culturales","Latitud":5.697756,"Longitud":-73.764456,"Población":14623,"fuente":"Inversión","ejecutado":0.0},{"divipola":"18150","Departamento":"Caquetá","Municipio":"Cartagena del Chairá","proyecto":"Expresiones Artísticas y Culturales","Latitud":1.33621,"Longitud":-74.841591,"Población":32841,"fuente":"Inversión","Subregión PDET":"Cuenca del Caguán y Piedemonte Caqueteño","ejecutado":8409600.0},{"divipola":"70508","Departamento":"Sucre","Municipio":"Ovejas","proyecto":"Expresiones Artísticas y Culturales","Latitud":9.527176,"Longitud":-75.229037,"Población":24131,"fuente":"Inversión","Subregión PDET":"Montes de María","ejecutado":23112319.0},{"divipola":"68679","Departamento":"Santander","Municipio":"San Gil","proyecto":"Expresiones Artísticas y Culturales","Latitud":6.556081,"Longitud":-73.136284,"Población":63602,"fuente":"Inversión","ejecutado":52839411.0},{"divipola":"70702","Departamento":"Sucre","Municipio":"San Juan de Betulia","proyecto":"Expresiones Artísticas y Culturales","Latitud":9.273066,"Longitud":-75.243565,"Población":14476,"fuente":"Inversión","ejecutado":0.0},{"divipola":"05134","Departamento":"Antioquia","Municipio":"Campamento","proyecto":"Expresiones Artísticas y Culturales","Latitud":6.979771,"Longitud":-75.298091,"Población":9755,"fuente":"Inversión","ejecutado":0.0},{"divipola":"15097","Departamento":"Boyacá","Municipio":"Boavita","proyecto":"Expresiones Artísticas y Culturales","Latitud":6.330703,"Longitud":-72.584905,"Población":5422,"fuente":"Inversión","ejecutado":0.0},{"divipola":"19809","Departamento":"Cauca","Municipio":"Timbiquí","proyecto":"Expresiones Artísticas y Culturales","Latitud":2.777312,"Longitud":-77.667541,"Población":28111,"fuente":"Inversión","Subregión PDET":"Pacífico Medio","ejecutado":28304013.0},{"divipola":"20000","Departamento":"Cesar","Municipio":"Departamental","proyecto":"Expresiones Artísticas y Culturales","Latitud":10.460472,"Longitud":-73.259398,"fuente":"Inversión","ejecutado":0.0},{"divipola":"23574","Departamento":"Córdoba","Municipio":"Puerto Escondido","proyecto":"Expresiones Artísticas y Culturales","Latitud":9.005372,"Longitud":-76.260411,"Población":25717,"fuente":"Inversión","ejecutado":0.0},{"divipola":"52083","Departamento":"Nariño","Municipio":"Belén","proyecto":"Expresiones Artísticas y Culturales","Latitud":1.595719,"Longitud":-77.015621,"Población":6636,"fuente":"Inversión","ejecutado":0.0},{"divipola":"85263","Departamento":"Casanare","Municipio":"Pore","proyecto":"Expresiones Artísticas y Culturales","Latitud":5.72773,"Longitud":-71.99286,"Población":12875,"fuente":"Inversión","ejecutado":0.0},{"divipola":"08436","Departamento":"Atlántico","Municipio":"Manatí","proyecto":"Expresiones Artísticas y Culturales","Latitud":10.449089,"Longitud":-74.956867,"Población":21876,"fuente":"Inversión","ejecutado":0.0},{"divipola":"17486","Departamento":"Caldas","Municipio":"Neira","proyecto":"Expresiones Artísticas y Culturales","Latitud":5.166799,"Longitud":-75.519886,"Población":21644,"fuente":"Inversión","ejecutado":0.0},{"divipola":"23807","Departamento":"Córdoba","Municipio":"Tierralta","proyecto":"Expresiones Artísticas y Culturales","Latitud":8.170612,"Longitud":-76.059797,"Población":99803,"fuente":"Inversión","Subregión PDET":"Sur de Córdoba","ejecutado":0.0},{"divipola":"25377","Departamento":"Cundinamarca","Municipio":"La Calera","proyecto":"Expresiones Artísticas y Culturales","Latitud":4.720345,"Longitud":-73.969745,"Población":36473,"fuente":"Inversión","ejecutado":53508264.0},{"divipola":"52683","Departamento":"Nariño","Municipio":"Sandoná","proyecto":"Expresiones Artísticas y Culturales","Latitud":1.286137,"Longitud":-77.469571,"Población":21386,"fuente":"Inversión","ejecutado":0.0},{"divipola":"05031","Departamento":"Antioquia","Municipio":"Amalfi","proyecto":"Expresiones Artísticas y Culturales","Latitud":6.912305,"Longitud":-75.082524,"Población":27846,"fuente":"Inversión","Subregión PDET":"Bajo Cauca y Nordeste Antioqueño","ejecutado":7982428.0},{"divipola":"05306","Departamento":"Antioquia","Municipio":"Giraldo","proyecto":"Expresiones Artísticas y Culturales","Latitud":6.680808,"Longitud":-75.952158,"Población":5963,"fuente":"Inversión","ejecutado":0.0},{"divipola":"23586","Departamento":"Córdoba","Municipio":"Purísima de la Concepción","proyecto":"Expresiones Artísticas y Culturales","Latitud":9.239295,"Longitud":-75.724987,"Población":18581,"fuente":"Inversión","ejecutado":0.0},{"divipola":"52356","Departamento":"Nariño","Municipio":"Ipiales","proyecto":"Expresiones Artísticas y Culturales","Latitud":0.827732,"Longitud":-77.646367,"Población":121546,"fuente":"Inversión","ejecutado":79251885.0},{"divipola":"70230","Departamento":"Sucre","Municipio":"Chalán","proyecto":"Expresiones Artísticas y Culturales","Latitud":9.545352,"Longitud":-75.312697,"Población":4841,"fuente":"Inversión","Subregión PDET":"Montes de María","ejecutado":0.0},{"divipola":"15187","Departamento":"Boyacá","Municipio":"Chivatá","proyecto":"Expresiones Artísticas y Culturales","Latitud":5.558949,"Longitud":-73.282529,"Población":2995,"fuente":"Inversión","ejecutado":0.0},{"divipola":"18592","Departamento":"Caquetá","Municipio":"Puerto Rico","proyecto":"Expresiones Artísticas y Culturales","Latitud":1.909071,"Longitud":-75.157544,"Población":27890,"fuente":"Inversión","Subregión PDET":"Cuenca del Caguán y Piedemonte Caqueteño","ejecutado":6958005.0},{"divipola":"25148","Departamento":"Cundinamarca","Municipio":"Caparrapí","proyecto":"Expresiones Artísticas y Culturales","Latitud":5.34901,"Longitud":-74.490708,"Población":14809,"fuente":"Inversión","ejecutado":0.0},{"divipola":"27250","Departamento":"Chocó","Municipio":"El Litoral del San Juan","proyecto":"Expresiones Artísticas y Culturales","Latitud":4.256823,"Longitud":-77.35989,"Población":25403,"fuente":"Inversión","Subregión PDET":"Chocó","ejecutado":16583596.0},{"divipola":"41518","Departamento":"Huila","Municipio":"Paicol","proyecto":"Expresiones Artísticas y Culturales","Latitud":2.449527,"Longitud":-75.772993,"Población":7174,"fuente":"Inversión","ejecutado":0.0},{"divipola":"41668","Departamento":"Huila","Municipio":"San Agustín","proyecto":"Expresiones Artísticas y Culturales","Latitud":1.881081,"Longitud":-76.27036,"Población":35994,"fuente":"Inversión","ejecutado":32000000.0},{"divipola":"63401","Departamento":"Quindío","Municipio":"La Tebaida","proyecto":"Expresiones Artísticas y Culturales","Latitud":4.453755,"Longitud":-75.786887,"Población":35189,"fuente":"Inversión","ejecutado":50163997.0},{"divipola":"73055","Departamento":"Tolima","Municipio":"Armero","proyecto":"Expresiones Artísticas y Culturales","Latitud":5.030744,"Longitud":-74.884438,"Población":13543,"fuente":"Inversión","ejecutado":4542618.0},{"divipola":"73616","Departamento":"Tolima","Municipio":"Rioblanco","proyecto":"Expresiones Artísticas y Culturales","Latitud":3.529842,"Longitud":-75.644718,"Población":23429,"fuente":"Inversión","Subregión PDET":"Sur del Tolima","ejecutado":7982382.0},{"divipola":"73622","Departamento":"Tolima","Municipio":"Roncesvalles","proyecto":"Expresiones Artísticas y Culturales","Latitud":4.012888,"Longitud":-75.606561,"Población":5652,"fuente":"Inversión","ejecutado":0.0},{"divipola":"00000","Departamento":"Nacional","Municipio":"Nacional","proyecto":"Expresiones Artísticas y Culturales","fuente":"Inversión","ejecutado":37737762933.0},{"divipola":"13001","Departamento":"Bolívar","Municipio":"Cartagena de Indias","proyecto":"Expresiones Artísticas y Culturales","Latitud":10.385126,"Longitud":-75.496269,"Población":1059626,"fuente":"Inversión","ejecutado":429179967.0},{"divipola":"20250","Departamento":"Cesar","Municipio":"El Paso","proyecto":"Expresiones Artísticas y Culturales","Latitud":9.66847,"Longitud":-73.741788,"Población":43619,"fuente":"Inversión","ejecutado":0.0},{"divipola":"27073","Departamento":"Chocó","Municipio":"Bagadó","proyecto":"Expresiones Artísticas y Culturales","Latitud":5.409681,"Longitud":-76.416063,"Población":11843,"fuente":"Inversión","ejecutado":0.0},{"divipola":"50245","Departamento":"Meta","Municipio":"El Calvario","proyecto":"Expresiones Artísticas y Culturales","Latitud":4.352665,"Longitud":-73.713325,"Población":1905,"fuente":"Inversión","ejecutado":0.0},{"divipola":"50350","Departamento":"Meta","Municipio":"La Macarena","proyecto":"Expresiones Artísticas y Culturales","Latitud":2.177143,"Longitud":-73.78661,"Población":29267,"fuente":"Inversión","Subregión PDET":"Macarena - Guaviare","ejecutado":22982382.0},{"divipola":"63272","Departamento":"Quindío","Municipio":"Filandia","proyecto":"Expresiones Artísticas y Culturales","Latitud":4.674213,"Longitud":-75.658675,"Población":12654,"fuente":"Inversión","ejecutado":0.0},{"divipola":"95000","Departamento":"Guaviare","Municipio":"Departamental","proyecto":"Expresiones Artísticas y Culturales","Latitud":2.566394,"Longitud":-72.639024,"fuente":"Inversión","ejecutado":0.0},{"divipola":"05001","Departamento":"Antioquia","Municipio":"Medellín","proyecto":"Expresiones Artísticas y Culturales","Latitud":6.250063,"Longitud":-75.578661,"Población":2616335,"fuente":"Inversión","ejecutado":2096349069.0},{"divipola":"08758","Departamento":"Atlántico","Municipio":"Soledad","proyecto":"Expresiones Artísticas y Culturales","Latitud":10.909999,"Longitud":-74.785829,"Población":681835,"fuente":"Inversión","ejecutado":0.0},{"divipola":"13222","Departamento":"Bolívar","Municipio":"Clemencia","proyecto":"Expresiones Artísticas y Culturales","Latitud":10.567541,"Longitud":-75.328517,"Población":16224,"fuente":"Inversión","ejecutado":0.0},{"divipola":"13268","Departamento":"Bolívar","Municipio":"El Peñón","proyecto":"Expresiones Artísticas y Culturales","Latitud":8.988271,"Longitud":-73.949274,"Población":8136,"fuente":"Inversión","ejecutado":0.0},{"divipola":"52540","Departamento":"Nariño","Municipio":"Policarpa","proyecto":"Expresiones Artísticas y Culturales","Latitud":1.628139,"Longitud":-77.459265,"Población":10386,"fuente":"Inversión","Subregión PDET":"Alto Patía y Norte del Cauca","ejecutado":5527060.0},{"divipola":"05361","Departamento":"Antioquia","Municipio":"Ituango","proyecto":"Expresiones Artísticas y Culturales","Latitud":7.171629,"Longitud":-75.764673,"Población":28890,"fuente":"Inversión","Subregión PDET":"Bajo Cauca y Nordeste Antioqueño","ejecutado":0.0},{"divipola":"15466","Departamento":"Boyacá","Municipio":"Monguí","proyecto":"Expresiones Artísticas y Culturales","Latitud":5.723486,"Longitud":-72.849292,"Población":4485,"fuente":"Inversión","ejecutado":0.0},{"divipola":"15522","Departamento":"Boyacá","Municipio":"Panqueba","proyecto":"Expresiones Artísticas y Culturales","Latitud":6.443416,"Longitud":-72.459424,"Población":1814,"fuente":"Inversión","ejecutado":0.0},{"divipola":"54810","Departamento":"Norte de Santander","Municipio":"Tibú","proyecto":"Expresiones Artísticas y Culturales","Latitud":8.639891,"Longitud":-72.734496,"Población":62151,"fuente":"Inversión","Subregión PDET":"Catatumbo","ejecutado":15000000.0},{"divipola":"94000","Departamento":"Guainía","Municipio":"Departamental","proyecto":"Expresiones Artísticas y Culturales","Latitud":3.866324,"Longitud":-67.918864,"fuente":"Inversión","ejecutado":0.0},{"divipola":"05209","Departamento":"Antioquia","Municipio":"Concordia","proyecto":"Expresiones Artísticas y Culturales","Latitud":6.045766,"Longitud":-75.908417,"Población":22737,"fuente":"Inversión","ejecutado":0.0},{"divipola":"13188","Departamento":"Bolívar","Municipio":"Cicuco","proyecto":"Expresiones Artísticas y Culturales","Latitud":9.274313,"Longitud":-74.646028,"Población":14761,"fuente":"Inversión","ejecutado":0.0},{"divipola":"15092","Departamento":"Boyacá","Municipio":"Betéitiva","proyecto":"Expresiones Artísticas y Culturales","Latitud":5.909978,"Longitud":-72.809014,"Población":2069,"fuente":"Inversión","ejecutado":0.0},{"divipola":"17442","Departamento":"Caldas","Municipio":"Marmato","proyecto":"Expresiones Artísticas y Culturales","Latitud":5.47422,"Longitud":-75.600049,"Población":9284,"fuente":"Inversión","ejecutado":0.0},{"divipola":"18410","Departamento":"Caquetá","Municipio":"La Montañita","proyecto":"Expresiones Artísticas y Culturales","Latitud":1.479173,"Longitud":-75.436408,"Población":15621,"fuente":"Inversión","Subregión PDET":"Cuenca del Caguán y Piedemonte Caqueteño","ejecutado":0.0},{"divipola":"23500","Departamento":"Córdoba","Municipio":"Moñitos","proyecto":"Expresiones Artísticas y Culturales","Latitud":9.245223,"Longitud":-76.1291,"Población":32414,"fuente":"Inversión","ejecutado":0.0},{"divipola":"25299","Departamento":"Cundinamarca","Municipio":"Gama","proyecto":"Expresiones Artísticas y Culturales","Latitud":4.763325,"Longitud":-73.611037,"Población":3669,"fuente":"Inversión","ejecutado":0.0},{"divipola":"25518","Departamento":"Cundinamarca","Municipio":"Paime","proyecto":"Expresiones Artísticas y Culturales","Latitud":5.370487,"Longitud":-74.152213,"Población":4870,"fuente":"Inversión","ejecutado":0.0},{"divipola":"41001","Departamento":"Huila","Municipio":"Neiva","proyecto":"Expresiones Artísticas y Culturales","Latitud":2.935971,"Longitud":-75.277285,"Población":384242,"fuente":"Inversión","ejecutado":155808580.0},{"divipola":"68160","Departamento":"Santander","Municipio":"Cepitá","proyecto":"Expresiones Artísticas y Culturales","Latitud":6.753518,"Longitud":-72.973536,"Población":2128,"fuente":"Inversión","ejecutado":0.0},{"divipola":"95001","Departamento":"Guaviare","Municipio":"San José del Guaviare","proyecto":"Expresiones Artísticas y Culturales","Latitud":2.566394,"Longitud":-72.639024,"Población":63208,"fuente":"Inversión","Subregión PDET":"Macarena - Guaviare","ejecutado":26582793.0},{"divipola":"05021","Departamento":"Antioquia","Municipio":"Alejandría","proyecto":"Expresiones Artísticas y Culturales","Latitud":6.376061,"Longitud":-75.141346,"Población":4955,"fuente":"Inversión","ejecutado":0.0},{"divipola":"15763","Departamento":"Boyacá","Municipio":"Sotaquirá","proyecto":"Expresiones Artísticas y Culturales","Latitud":5.765231,"Longitud":-73.247334,"Población":8791,"fuente":"Inversión","ejecutado":0.0},{"divipola":"17877","Departamento":"Caldas","Municipio":"Viterbo","proyecto":"Expresiones Artísticas y Culturales","Latitud":5.062664,"Longitud":-75.87061,"Población":13235,"fuente":"Inversión","ejecutado":0.0},{"divipola":"25095","Departamento":"Cundinamarca","Municipio":"Bituima","proyecto":"Expresiones Artísticas y Culturales","Latitud":4.872171,"Longitud":-74.539609,"Población":2944,"fuente":"Inversión","ejecutado":0.0},{"divipola":"25592","Departamento":"Cundinamarca","Municipio":"Quebradanegra","proyecto":"Expresiones Artísticas y Culturales","Latitud":5.118076,"Longitud":-74.48014,"Población":5583,"fuente":"Inversión","ejecutado":19200000.0},{"divipola":"47675","Departamento":"Magdalena","Municipio":"Salamina","proyecto":"Expresiones Artísticas y Culturales","Latitud":10.491229,"Longitud":-74.794189,"Población":12138,"fuente":"Inversión","ejecutado":0.0},{"divipola":"68370","Departamento":"Santander","Municipio":"Jordán","proyecto":"Expresiones Artísticas y Culturales","Latitud":6.732727,"Longitud":-73.096053,"Población":1396,"fuente":"Inversión","ejecutado":0.0},{"divipola":"76364","Departamento":"Valle del Cauca","Municipio":"Jamundí","proyecto":"Expresiones Artísticas y Culturales","Latitud":3.260449,"Longitud":-76.539785,"Población":181478,"fuente":"Inversión","ejecutado":54177117.0},{"divipola":"91001","Departamento":"Amazonas","Municipio":"Leticia","proyecto":"Expresiones Artísticas y Culturales","Latitud":-4.199511,"Longitud":-69.941465,"Población":54927,"fuente":"Inversión","ejecutado":34293705.0},{"divipola":"08137","Departamento":"Atlántico","Municipio":"Campo de la Cruz","proyecto":"Expresiones Artísticas y Culturales","Latitud":10.37924,"Longitud":-74.883152,"Población":25047,"fuente":"Inversión","ejecutado":0.0},{"divipola":"08638","Departamento":"Atlántico","Municipio":"Sabanalarga","proyecto":"Expresiones Artísticas y Culturales","Latitud":10.632291,"Longitud":-74.92153,"Población":104302,"fuente":"Inversión","ejecutado":10906539.0},{"divipola":"18247","Departamento":"Caquetá","Municipio":"El Doncello","proyecto":"Expresiones Artísticas y Culturales","Latitud":1.679951,"Longitud":-75.283631,"Población":20336,"fuente":"Inversión","Subregión PDET":"Cuenca del Caguán y Piedemonte Caqueteño","ejecutado":0.0},{"divipola":"23090","Departamento":"Córdoba","Municipio":"Canalete","proyecto":"Expresiones Artísticas y Culturales","Latitud":8.786939,"Longitud":-76.241476,"Población":16563,"fuente":"Inversión","ejecutado":78769455.0},{"divipola":"23855","Departamento":"Córdoba","Municipio":"Valencia","proyecto":"Expresiones Artísticas y Culturales","Latitud":8.255016,"Longitud":-76.150756,"Población":38545,"fuente":"Inversión","Subregión PDET":"Sur de Córdoba","ejecutado":0.0},{"divipola":"25245","Departamento":"Cundinamarca","Municipio":"El Colegio","proyecto":"Expresiones Artísticas y Culturales","Latitud":4.578071,"Longitud":-74.44221,"Población":29077,"fuente":"Inversión","ejecutado":48157437.0},{"divipola":"27245","Departamento":"Chocó","Municipio":"El Carmen de Atrato","proyecto":"Expresiones Artísticas y Culturales","Latitud":5.899789,"Longitud":-76.142112,"Población":9273,"fuente":"Inversión","ejecutado":4204800.0},{"divipola":"50590","Departamento":"Meta","Municipio":"Puerto Rico","proyecto":"Expresiones Artísticas y Culturales","Latitud":2.939621,"Longitud":-73.206314,"Población":13832,"fuente":"Inversión","Subregión PDET":"Macarena - Guaviare","ejecutado":0.0},{"divipola":"68468","Departamento":"Santander","Municipio":"Molagavita","proyecto":"Expresiones Artísticas y Culturales","Latitud":6.674326,"Longitud":-72.809177,"Población":4325,"fuente":"Inversión","ejecutado":0.0},{"divipola":"73870","Departamento":"Tolima","Municipio":"Villahermosa","proyecto":"Expresiones Artísticas y Culturales","Latitud":5.030452,"Longitud":-75.117729,"Población":9801,"fuente":"Inversión","ejecutado":0.0},{"divipola":"76100","Departamento":"Valle del Cauca","Municipio":"Bolívar","proyecto":"Expresiones Artísticas y Culturales","Latitud":4.337846,"Longitud":-76.183583,"Población":16472,"fuente":"Inversión","ejecutado":20000842.0},{"divipola":"85300","Departamento":"Casanare","Municipio":"Sabanalarga","proyecto":"Expresiones Artísticas y Culturales","Latitud":4.854787,"Longitud":-73.038696,"Población":4078,"fuente":"Inversión","ejecutado":0.0},{"divipola":"97001","Departamento":"Vaupés","Municipio":"Mitú","proyecto":"Expresiones Artísticas y Culturales","Latitud":1.253151,"Longitud":-70.232641,"Población":34886,"fuente":"Inversión","ejecutado":27478618.0},{"divipola":"05240","Departamento":"Antioquia","Municipio":"Ebéjico","proyecto":"Expresiones Artísticas y Culturales","Latitud":6.326128,"Longitud":-75.764165,"Población":12820,"fuente":"Inversión","ejecutado":0.0},{"divipola":"05440","Departamento":"Antioquia","Municipio":"Marinilla","proyecto":"Expresiones Artísticas y Culturales","Latitud":6.172156,"Longitud":-75.33889,"Población":69898,"fuente":"Inversión","ejecutado":107016528.0},{"divipola":"05761","Departamento":"Antioquia","Municipio":"Sopetrán","proyecto":"Expresiones Artísticas y Culturales","Latitud":6.500745,"Longitud":-75.747378,"Población":16089,"fuente":"Inversión","ejecutado":0.0},{"divipola":"15047","Departamento":"Boyacá","Municipio":"Aquitania","proyecto":"Expresiones Artísticas y Culturales","Latitud":5.518602,"Longitud":-72.88399,"Población":16480,"fuente":"Inversión","ejecutado":0.0},{"divipola":"15317","Departamento":"Boyacá","Municipio":"Guacamayas","proyecto":"Expresiones Artísticas y Culturales","Latitud":6.459667,"Longitud":-72.500812,"Población":1967,"fuente":"Inversión","ejecutado":0.0},{"divipola":"15325","Departamento":"Boyacá","Municipio":"Guayatá","proyecto":"Expresiones Artísticas y Culturales","Latitud":4.967122,"Longitud":-73.489698,"Población":3527,"fuente":"Inversión","ejecutado":0.0},{"divipola":"20550","Departamento":"Cesar","Municipio":"Pelaya","proyecto":"Expresiones Artísticas y Culturales","Latitud":8.689006,"Longitud":-73.666451,"Población":24170,"fuente":"Inversión","ejecutado":0.0},{"divipola":"25258","Departamento":"Cundinamarca","Municipio":"El Peñón","proyecto":"Expresiones Artísticas y Culturales","Latitud":5.248747,"Longitud":-74.290207,"Población":5510,"fuente":"Inversión","ejecutado":0.0},{"divipola":"41078","Departamento":"Huila","Municipio":"Baraya","proyecto":"Expresiones Artísticas y Culturales","Latitud":3.152983,"Longitud":-75.055253,"Población":8969,"fuente":"Inversión","ejecutado":0.0},{"divipola":"68020","Departamento":"Santander","Municipio":"Albania","proyecto":"Expresiones Artísticas y Culturales","Latitud":5.758993,"Longitud":-73.913823,"Población":4320,"fuente":"Inversión","ejecutado":0.0},{"divipola":"68547","Departamento":"Santander","Municipio":"Piedecuesta","proyecto":"Expresiones Artísticas y Culturales","Latitud":6.997272,"Longitud":-73.054493,"Población":192193,"fuente":"Inversión","ejecutado":65473582.0},{"divipola":"17272","Departamento":"Caldas","Municipio":"Filadelfia","proyecto":"Expresiones Artísticas y Culturales","Latitud":5.297091,"Longitud":-75.562474,"Población":11737,"fuente":"Inversión","ejecutado":0.0},{"divipola":"19397","Departamento":"Cauca","Municipio":"La Vega","proyecto":"Expresiones Artísticas y Culturales","Latitud":2.001109,"Longitud":-76.779032,"Población":26295,"fuente":"Inversión","ejecutado":0.0},{"divipola":"41770","Departamento":"Huila","Municipio":"Suaza","proyecto":"Expresiones Artísticas y Culturales","Latitud":1.976051,"Longitud":-75.79525,"Población":23832,"fuente":"Inversión","ejecutado":0.0},{"divipola":"44098","Departamento":"La Guajira","Municipio":"Distracción","proyecto":"Expresiones Artísticas y Culturales","Latitud":10.898414,"Longitud":-72.887405,"Población":15636,"fuente":"Inversión","ejecutado":0.0},{"divipola":"50110","Departamento":"Meta","Municipio":"Barranca de Upía","proyecto":"Expresiones Artísticas y Culturales","Latitud":4.566225,"Longitud":-72.961083,"Población":7181,"fuente":"Inversión","ejecutado":0.0},{"divipola":"50226","Departamento":"Meta","Municipio":"Cumaral","proyecto":"Expresiones Artísticas y Culturales","Latitud":4.269535,"Longitud":-73.486557,"Población":25201,"fuente":"Inversión","ejecutado":0.0},{"divipola":"15223","Departamento":"Boyacá","Municipio":"Cubará","proyecto":"Expresiones Artísticas y Culturales","Latitud":7.000093,"Longitud":-72.110688,"Población":11295,"fuente":"Inversión","ejecutado":40859129.0},{"divipola":"27361","Departamento":"Chocó","Municipio":"Istmina","proyecto":"Expresiones Artísticas y Culturales","Latitud":5.153946,"Longitud":-76.68518,"Población":33814,"fuente":"Inversión","Subregión PDET":"Chocó","ejecutado":32868973.0},{"divipola":"13052","Departamento":"Bolívar","Municipio":"Arjona","proyecto":"Expresiones Artísticas y Culturales","Latitud":10.256633,"Longitud":-75.344501,"Población":75995,"fuente":"Inversión","ejecutado":0.0},{"divipola":"15455","Departamento":"Boyacá","Municipio":"Miraflores","proyecto":"Expresiones Artísticas y Culturales","Latitud":5.196515,"Longitud":-73.14563,"Población":9481,"fuente":"Inversión","ejecutado":0.0},{"divipola":"20517","Departamento":"Cesar","Municipio":"Pailitas","proyecto":"Expresiones Artísticas y Culturales","Latitud":8.956032,"Longitud":-73.625808,"Población":21642,"fuente":"Inversión","ejecutado":0.0},{"divipola":"41319","Departamento":"Huila","Municipio":"Guadalupe","proyecto":"Expresiones Artísticas y Culturales","Latitud":2.025157,"Longitud":-75.755028,"Población":19508,"fuente":"Inversión","ejecutado":0.0},{"divipola":"47541","Departamento":"Magdalena","Municipio":"Pedraza","proyecto":"Expresiones Artísticas y Culturales","Latitud":10.188206,"Longitud":-74.915458,"Población":10544,"fuente":"Inversión","ejecutado":0.0},{"divipola":"54239","Departamento":"Norte de Santander","Municipio":"Durania","proyecto":"Expresiones Artísticas y Culturales","Latitud":7.714804,"Longitud":-72.658491,"Población":5197,"fuente":"Inversión","ejecutado":0.0},{"divipola":"54553","Departamento":"Norte de Santander","Municipio":"Puerto Santander","proyecto":"Expresiones Artísticas y Culturales","Latitud":8.359993,"Longitud":-72.411363,"Población":9913,"fuente":"Inversión","ejecutado":0.0},{"divipola":"68780","Departamento":"Santander","Municipio":"Suratá","proyecto":"Expresiones Artísticas y Culturales","Latitud":7.36658,"Longitud":-72.984232,"Población":4135,"fuente":"Inversión","ejecutado":0.0},{"divipola":"18785","Departamento":"Caquetá","Municipio":"Solita","proyecto":"Expresiones Artísticas y Culturales","Latitud":0.87654,"Longitud":-75.619902,"Población":6389,"fuente":"Inversión","Subregión PDET":"Cuenca del Caguán y Piedemonte Caqueteño","ejecutado":0.0},{"divipola":"25290","Departamento":"Cundinamarca","Municipio":"Fusagasugá","proyecto":"Expresiones Artísticas y Culturales","Latitud":4.337922,"Longitud":-74.365398,"Población":170450,"fuente":"Inversión","ejecutado":0.0},{"divipola":"47318","Departamento":"Magdalena","Municipio":"Guamal","proyecto":"Expresiones Artísticas y Culturales","Latitud":9.144354,"Longitud":-74.223689,"Población":30354,"fuente":"Inversión","ejecutado":0.0},{"divipola":"91263","Departamento":"Amazonas","Municipio":"El Encanto (Anm)","proyecto":"Expresiones Artísticas y Culturales","Latitud":-1.746288,"Longitud":-73.208974,"fuente":"Inversión","ejecutado":0.0},{"divipola":"05790","Departamento":"Antioquia","Municipio":"Tarazá","proyecto":"Expresiones Artísticas y Culturales","Latitud":7.580127,"Longitud":-75.401407,"Población":29082,"fuente":"Inversión","Subregión PDET":"Bajo Cauca y Nordeste Antioqueño","ejecutado":0.0},{"divipola":"15667","Departamento":"Boyacá","Municipio":"San Luis de Gaceno","proyecto":"Expresiones Artísticas y Culturales","Latitud":4.81976,"Longitud":-73.168076,"Población":5877,"fuente":"Inversión","ejecutado":0.0},{"divipola":"15755","Departamento":"Boyacá","Municipio":"Socotá","proyecto":"Expresiones Artísticas y Culturales","Latitud":6.041162,"Longitud":-72.636653,"Población":7688,"fuente":"Inversión","ejecutado":0.0},{"divipola":"17867","Departamento":"Caldas","Municipio":"Victoria","proyecto":"Expresiones Artísticas y Culturales","Latitud":5.317437,"Longitud":-74.911239,"Población":10525,"fuente":"Inversión","ejecutado":0.0},{"divipola":"52694","Departamento":"Nariño","Municipio":"San Pedro de Cartago","proyecto":"Expresiones Artísticas y Culturales","Latitud":1.551758,"Longitud":-77.119189,"Población":7167,"fuente":"Inversión","ejecutado":0.0},{"divipola":"05873","Departamento":"Antioquia","Municipio":"Vigía del Fuerte","proyecto":"Expresiones Artísticas y Culturales","Latitud":6.588164,"Longitud":-76.896004,"Población":9752,"fuente":"Inversión","Subregión PDET":"Chocó","ejecutado":0.0},{"divipola":"15299","Departamento":"Boyacá","Municipio":"Garagoa","proyecto":"Expresiones Artísticas y Culturales","Latitud":5.083234,"Longitud":-73.364413,"Población":19415,"fuente":"Inversión","ejecutado":0.0},{"divipola":"52240","Departamento":"Nariño","Municipio":"Chachagüí","proyecto":"Expresiones Artísticas y Culturales","Latitud":1.360328,"Longitud":-77.281701,"Población":15949,"fuente":"Inversión","ejecutado":0.0},{"divipola":"68320","Departamento":"Santander","Municipio":"Guadalupe","proyecto":"Expresiones Artísticas y Culturales","Latitud":6.245847,"Longitud":-73.419292,"Población":4760,"fuente":"Inversión","ejecutado":0.0},{"divipola":"76377","Departamento":"Valle del Cauca","Municipio":"La Cumbre","proyecto":"Expresiones Artísticas y Culturales","Latitud":3.649268,"Longitud":-76.56805,"Población":17342,"fuente":"Inversión","ejecutado":0.0},{"divipola":"25372","Departamento":"Cundinamarca","Municipio":"Junín","proyecto":"Expresiones Artísticas y Culturales","Latitud":4.79057,"Longitud":-73.662961,"Población":6827,"fuente":"Inversión","ejecutado":0.0},{"divipola":"47058","Departamento":"Magdalena","Municipio":"Ariguaní","proyecto":"Expresiones Artísticas y Culturales","Latitud":9.847048,"Longitud":-74.236515,"Población":34117,"fuente":"Inversión","ejecutado":0.0},{"divipola":"52560","Departamento":"Nariño","Municipio":"Potosí","proyecto":"Expresiones Artísticas y Culturales","Latitud":0.806342,"Longitud":-77.572792,"Población":10777,"fuente":"Inversión","ejecutado":0.0},{"divipola":"54051","Departamento":"Norte de Santander","Municipio":"Arboledas","proyecto":"Expresiones Artísticas y Culturales","Latitud":7.642985,"Longitud":-72.798952,"Población":11028,"fuente":"Inversión","ejecutado":0.0},{"divipola":"70771","Departamento":"Sucre","Municipio":"Sucre","proyecto":"Expresiones Artísticas y Culturales","Latitud":8.811737,"Longitud":-74.723175,"Población":32983,"fuente":"Inversión","ejecutado":0.0},{"divipola":"05125","Departamento":"Antioquia","Municipio":"Caicedo","proyecto":"Expresiones Artísticas y Culturales","Latitud":6.405607,"Longitud":-75.98293,"Población":8870,"fuente":"Inversión","ejecutado":0.0},{"divipola":"20060","Departamento":"Cesar","Municipio":"Bosconia","proyecto":"Expresiones Artísticas y Culturales","Latitud":9.975098,"Longitud":-73.888761,"Población":46856,"fuente":"Inversión","ejecutado":0.0},{"divipola":"25286","Departamento":"Cundinamarca","Municipio":"Funza","proyecto":"Expresiones Artísticas y Culturales","Latitud":4.712763,"Longitud":-74.211525,"Población":115217,"fuente":"Inversión","ejecutado":50163997.0},{"divipola":"68235","Departamento":"Santander","Municipio":"El Carmen de Chucurí","proyecto":"Expresiones Artísticas y Culturales","Latitud":6.697907,"Longitud":-73.511268,"Población":22596,"fuente":"Inversión","ejecutado":0.0},{"divipola":"68872","Departamento":"Santander","Municipio":"Villanueva","proyecto":"Expresiones Artísticas y Culturales","Latitud":6.670078,"Longitud":-73.174307,"Población":8818,"fuente":"Inversión","ejecutado":0.0},{"divipola":"85315","Departamento":"Casanare","Municipio":"Sácama","proyecto":"Expresiones Artísticas y Culturales","Latitud":6.096738,"Longitud":-72.250157,"Población":2367,"fuente":"Inversión","ejecutado":0.0},{"divipola":"05154","Departamento":"Antioquia","Municipio":"Caucasia","proyecto":"Expresiones Artísticas y Culturales","Latitud":7.977278,"Longitud":-75.197996,"Población":97803,"fuente":"Inversión","Subregión PDET":"Bajo Cauca y Nordeste Antioqueño","ejecutado":7982382.0},{"divipola":"25324","Departamento":"Cundinamarca","Municipio":"Guataquí","proyecto":"Expresiones Artísticas y Culturales","Latitud":4.517517,"Longitud":-74.790058,"Población":3440,"fuente":"Inversión","ejecutado":0.0},{"divipola":"25862","Departamento":"Cundinamarca","Municipio":"Vergara","proyecto":"Expresiones Artísticas y Culturales","Latitud":5.117258,"Longitud":-74.346163,"Población":8050,"fuente":"Inversión","ejecutado":0.0},{"divipola":"27077","Departamento":"Chocó","Municipio":"Bajo Baudó","proyecto":"Expresiones Artísticas y Culturales","Latitud":4.954576,"Longitud":-77.365717,"Población":33930,"fuente":"Inversión","ejecutado":0.0},{"divipola":"27800","Departamento":"Chocó","Municipio":"Unguía","proyecto":"Expresiones Artísticas y Culturales","Latitud":8.042761,"Longitud":-77.091753,"Población":14551,"fuente":"Inversión","Subregión PDET":"Chocó","ejecutado":16583596.0},{"divipola":"47268","Departamento":"Magdalena","Municipio":"El Retén","proyecto":"Expresiones Artísticas y Culturales","Latitud":10.610445,"Longitud":-74.268412,"Población":21875,"fuente":"Inversión","ejecutado":0.0},{"divipola":"76616","Departamento":"Valle del Cauca","Municipio":"Riofrío","proyecto":"Expresiones Artísticas y Culturales","Latitud":4.156908,"Longitud":-76.288313,"Población":15991,"fuente":"Inversión","ejecutado":0.0},{"divipola":"15533","Departamento":"Boyacá","Municipio":"Paya","proyecto":"Expresiones Artísticas y Culturales","Latitud":5.625699,"Longitud":-72.423775,"Población":2795,"fuente":"Inversión","ejecutado":0.0},{"divipola":"19290","Departamento":"Cauca","Municipio":"Florencia","proyecto":"Expresiones Artísticas y Culturales","Latitud":1.682535,"Longitud":-77.072547,"Población":5509,"fuente":"Inversión","ejecutado":0.0},{"divipola":"41797","Departamento":"Huila","Municipio":"Tesalia","proyecto":"Expresiones Artísticas y Culturales","Latitud":2.486364,"Longitud":-75.730271,"Población":11610,"fuente":"Inversión","ejecutado":0.0},{"divipola":"47161","Departamento":"Magdalena","Municipio":"Cerro de San Antonio","proyecto":"Expresiones Artísticas y Culturales","Latitud":10.325621,"Longitud":-74.868481,"Población":11282,"fuente":"Inversión","ejecutado":0.0},{"divipola":"50124","Departamento":"Meta","Municipio":"Cabuyaro","proyecto":"Expresiones Artísticas y Culturales","Latitud":4.286705,"Longitud":-72.791768,"Población":6652,"fuente":"Inversión","ejecutado":0.0},{"divipola":"52250","Departamento":"Nariño","Municipio":"El Charco","proyecto":"Expresiones Artísticas y Culturales","Latitud":2.477545,"Longitud":-78.109865,"Población":23249,"fuente":"Inversión","Subregión PDET":"Pacífico y Frontera Nariñense","ejecutado":1362785.0},{"divipola":"68000","Departamento":"Santander","Municipio":"Departamental","proyecto":"Expresiones Artísticas y Culturales","Latitud":7.116381,"Longitud":-73.132582,"fuente":"Inversión","ejecutado":0.0},{"divipola":"70713","Departamento":"Sucre","Municipio":"San Onofre","proyecto":"Expresiones Artísticas y Culturales","Latitud":9.736955,"Longitud":-75.522398,"Población":57051,"fuente":"Inversión","Subregión PDET":"Montes de María","ejecutado":48583596.0},{"divipola":"85139","Departamento":"Casanare","Municipio":"Maní","proyecto":"Expresiones Artísticas y Culturales","Latitud":4.81681,"Longitud":-72.281384,"Población":18304,"fuente":"Inversión","ejecutado":9359589.0},{"divipola":"05237","Departamento":"Antioquia","Municipio":"Donmatías","proyecto":"Expresiones Artísticas y Culturales","Latitud":6.485603,"Longitud":-75.39263,"Población":20360,"fuente":"Inversión","ejecutado":0.0},{"divipola":"05615","Departamento":"Antioquia","Municipio":"Rionegro","proyecto":"Expresiones Artísticas y Culturales","Latitud":6.147425,"Longitud":-75.376859,"Población":146880,"fuente":"Inversión","ejecutado":55514824.0},{"divipola":"15580","Departamento":"Boyacá","Municipio":"Quípama","proyecto":"Expresiones Artísticas y Culturales","Latitud":5.51837,"Longitud":-74.177729,"Población":5272,"fuente":"Inversión","ejecutado":0.0},{"divipola":"47030","Departamento":"Magdalena","Municipio":"Algarrobo","proyecto":"Expresiones Artísticas y Culturales","Latitud":10.188059,"Longitud":-74.061132,"Población":17777,"fuente":"Inversión","ejecutado":0.0},{"divipola":"68101","Departamento":"Santander","Municipio":"Bolívar","proyecto":"Expresiones Artísticas y Culturales","Latitud":5.988953,"Longitud":-73.771346,"Población":11910,"fuente":"Inversión","ejecutado":0.0},{"divipola":"05842","Departamento":"Antioquia","Municipio":"Uramita","proyecto":"Expresiones Artísticas y Culturales","Latitud":6.898393,"Longitud":-76.173284,"Población":7277,"fuente":"Inversión","ejecutado":0.0},{"divipola":"68298","Departamento":"Santander","Municipio":"Gámbita","proyecto":"Expresiones Artísticas y Culturales","Latitud":5.945981,"Longitud":-73.344184,"Población":4218,"fuente":"Inversión","ejecutado":0.0},{"divipola":"68502","Departamento":"Santander","Municipio":"Onzaga","proyecto":"Expresiones Artísticas y Culturales","Latitud":6.344104,"Longitud":-72.816766,"Población":4306,"fuente":"Inversión","ejecutado":0.0},{"divipola":"81001","Departamento":"Arauca","Municipio":"Arauca","proyecto":"Expresiones Artísticas y Culturales","Latitud":7.077359,"Longitud":-70.74635,"Población":100690,"fuente":"Inversión","ejecutado":9357793.0},{"divipola":"05206","Departamento":"Antioquia","Municipio":"Concepción","proyecto":"Expresiones Artísticas y Culturales","Latitud":6.394348,"Longitud":-75.257587,"Población":5049,"fuente":"Inversión","ejecutado":0.0},{"divipola":"05390","Departamento":"Antioquia","Municipio":"La Pintada","proyecto":"Expresiones Artísticas y Culturales","Latitud":5.743808,"Longitud":-75.60781,"Población":8614,"fuente":"Inversión","ejecutado":0.0},{"divipola":"15238","Departamento":"Boyacá","Municipio":"Duitama","proyecto":"Expresiones Artísticas y Culturales","Latitud":5.822964,"Longitud":-73.03063,"Población":132894,"fuente":"Inversión","ejecutado":113495144.0},{"divipola":"20178","Departamento":"Cesar","Municipio":"Chiriguaná","proyecto":"Expresiones Artísticas y Culturales","Latitud":9.361058,"Longitud":-73.599913,"Población":32291,"fuente":"Inversión","ejecutado":0.0},{"divipola":"23580","Departamento":"Córdoba","Municipio":"Puerto Libertador","proyecto":"Expresiones Artísticas y Culturales","Latitud":7.888859,"Longitud":-75.671761,"Población":45416,"fuente":"Inversión","Subregión PDET":"Sur de Córdoba","ejecutado":0.0},{"divipola":"52352","Departamento":"Nariño","Municipio":"Iles","proyecto":"Expresiones Artísticas y Culturales","Latitud":0.96952,"Longitud":-77.521227,"Población":7995,"fuente":"Inversión","ejecutado":0.0},{"divipola":"66440","Departamento":"Risaralda","Municipio":"Marsella","proyecto":"Expresiones Artísticas y Culturales","Latitud":4.935559,"Longitud":-75.738576,"Población":17234,"fuente":"Inversión","ejecutado":0.0},{"divipola":"68684","Departamento":"Santander","Municipio":"San José de Miranda","proyecto":"Expresiones Artísticas y Culturales","Latitud":6.658995,"Longitud":-72.733616,"Población":4467,"fuente":"Inversión","ejecutado":0.0},{"divipola":"05656","Departamento":"Antioquia","Municipio":"San Jerónimo","proyecto":"Expresiones Artísticas y Culturales","Latitud":6.44809,"Longitud":-75.726975,"Población":16499,"fuente":"Inversión","ejecutado":0.0},{"divipola":"05756","Departamento":"Antioquia","Municipio":"Sonsón","proyecto":"Expresiones Artísticas y Culturales","Latitud":5.714851,"Longitud":-75.309596,"Población":38520,"fuente":"Inversión","ejecutado":59527944.0},{"divipola":"17873","Departamento":"Caldas","Municipio":"Villamaría","proyecto":"Expresiones Artísticas y Culturales","Latitud":5.043614,"Longitud":-75.513761,"Población":69021,"fuente":"Inversión","ejecutado":0.0},{"divipola":"73124","Departamento":"Tolima","Municipio":"Cajamarca","proyecto":"Expresiones Artísticas y Culturales","Latitud":4.436595,"Longitud":-75.435748,"Población":19408,"fuente":"Inversión","ejecutado":0.0},{"divipola":"76845","Departamento":"Valle del Cauca","Municipio":"Ulloa","proyecto":"Expresiones Artísticas y Culturales","Latitud":4.702514,"Longitud":-75.737748,"Población":5831,"fuente":"Inversión","ejecutado":0.0},{"divipola":"86569","Departamento":"Putumayo","Municipio":"Puerto Caicedo","proyecto":"Expresiones Artísticas y Culturales","Latitud":0.684854,"Longitud":-76.605088,"Población":17043,"fuente":"Inversión","Subregión PDET":"Putumayo","ejecutado":36000000.0},{"divipola":"05138","Departamento":"Antioquia","Municipio":"Cañasgordas","proyecto":"Expresiones Artísticas y Culturales","Latitud":6.759478,"Longitud":-76.03221,"Población":16371,"fuente":"Inversión","ejecutado":0.0},{"divipola":"05197","Departamento":"Antioquia","Municipio":"Cocorná","proyecto":"Expresiones Artísticas y Culturales","Latitud":6.058295,"Longitud":-75.185483,"Población":16551,"fuente":"Inversión","ejecutado":0.0},{"divipola":"05579","Departamento":"Antioquia","Municipio":"Puerto Berrío","proyecto":"Expresiones Artísticas y Culturales","Latitud":6.48701,"Longitud":-74.409962,"Población":42203,"fuente":"Inversión","ejecutado":0.0},{"divipola":"15380","Departamento":"Boyacá","Municipio":"La Capilla","proyecto":"Expresiones Artísticas y Culturales","Latitud":5.095687,"Longitud":-73.444347,"Población":2851,"fuente":"Inversión","ejecutado":0.0},{"divipola":"20238","Departamento":"Cesar","Municipio":"El Copey","proyecto":"Expresiones Artísticas y Culturales","Latitud":10.149626,"Longitud":-73.962751,"Población":34993,"fuente":"Inversión","ejecutado":0.0},{"divipola":"23464","Departamento":"Córdoba","Municipio":"Momil","proyecto":"Expresiones Artísticas y Culturales","Latitud":9.240707,"Longitud":-75.67796,"Población":21094,"fuente":"Inversión","ejecutado":0.0},{"divipola":"25491","Departamento":"Cundinamarca","Municipio":"Nocaima","proyecto":"Expresiones Artísticas y Culturales","Latitud":5.068933,"Longitud":-74.377728,"Población":7299,"fuente":"Inversión","ejecutado":32000000.0},{"divipola":"52678","Departamento":"Nariño","Municipio":"Samaniego","proyecto":"Expresiones Artísticas y Culturales","Latitud":1.335438,"Longitud":-77.594341,"Población":30137,"fuente":"Inversión","ejecutado":0.0},{"divipola":"54398","Departamento":"Norte de Santander","Municipio":"La Playa","proyecto":"Expresiones Artísticas y Culturales","Latitud":8.212854,"Longitud":-73.238417,"Población":8741,"fuente":"Inversión","ejecutado":0.0},{"divipola":"85440","Departamento":"Casanare","Municipio":"Villanueva","proyecto":"Expresiones Artísticas y Culturales","Latitud":4.610006,"Longitud":-72.927446,"Población":40227,"fuente":"Inversión","ejecutado":0.0},{"divipola":"13000","Departamento":"Bolívar","Municipio":"Departamental","proyecto":"Expresiones Artísticas y Culturales","Latitud":10.385126,"Longitud":-75.496269,"fuente":"Inversión","ejecutado":0.0},{"divipola":"15646","Departamento":"Boyacá","Municipio":"Samacá","proyecto":"Expresiones Artísticas y Culturales","Latitud":5.492161,"Longitud":-73.485589,"Población":19850,"fuente":"Inversión","ejecutado":0.0},{"divipola":"27025","Departamento":"Chocó","Municipio":"Alto Baudó","proyecto":"Expresiones Artísticas y Culturales","Latitud":5.516221,"Longitud":-76.974373,"Población":31267,"fuente":"Inversión","ejecutado":0.0},{"divipola":"27372","Departamento":"Chocó","Municipio":"Juradó","proyecto":"Expresiones Artísticas y Culturales","Latitud":7.103619,"Longitud":-77.762751,"Población":7535,"fuente":"Inversión","ejecutado":0.0},{"divipola":"47545","Departamento":"Magdalena","Municipio":"Pijiño del Carmen","proyecto":"Expresiones Artísticas y Culturales","Latitud":9.334376,"Longitud":-74.459257,"Población":13675,"fuente":"Inversión","ejecutado":0.0},{"divipola":"54673","Departamento":"Norte de Santander","Municipio":"San Cayetano","proyecto":"Expresiones Artísticas y Culturales","Latitud":7.875695,"Longitud":-72.625459,"Población":8102,"fuente":"Inversión","ejecutado":0.0},{"divipola":"68522","Departamento":"Santander","Municipio":"Palmar","proyecto":"Expresiones Artísticas y Culturales","Latitud":6.537789,"Longitud":-73.29109,"Población":1491,"fuente":"Inversión","ejecutado":0.0},{"divipola":"05585","Departamento":"Antioquia","Municipio":"Puerto Nare","proyecto":"Expresiones Artísticas y Culturales","Latitud":6.186025,"Longitud":-74.583012,"Población":15232,"fuente":"Inversión","ejecutado":0.0},{"divipola":"05664","Departamento":"Antioquia","Municipio":"San Pedro de los Milagros","proyecto":"Expresiones Artísticas y Culturales","Latitud":6.46012,"Longitud":-75.556743,"Población":23573,"fuente":"Inversión","ejecutado":0.0},{"divipola":"15362","Departamento":"Boyacá","Municipio":"Iza","proyecto":"Expresiones Artísticas y Culturales","Latitud":5.611696,"Longitud":-72.980176,"Población":2094,"fuente":"Inversión","ejecutado":0.0},{"divipola":"25086","Departamento":"Cundinamarca","Municipio":"Beltrán","proyecto":"Expresiones Artísticas y Culturales","Latitud":4.802832,"Longitud":-74.741666,"Población":2129,"fuente":"Inversión","ejecutado":0.0},{"divipola":"54128","Departamento":"Norte de Santander","Municipio":"Cáchira","proyecto":"Expresiones Artísticas y Culturales","Latitud":7.741248,"Longitud":-73.048983,"Población":12500,"fuente":"Inversión","ejecutado":0.0},{"divipola":"73236","Departamento":"Tolima","Municipio":"Dolores","proyecto":"Expresiones Artísticas y Culturales","Latitud":3.539073,"Longitud":-74.896754,"Población":8648,"fuente":"Inversión","ejecutado":0.0},{"divipola":"97889","Departamento":"Vaupés","Municipio":"Yavaraté (Anm)","proyecto":"Expresiones Artísticas y Culturales","Latitud":0.609142,"Longitud":-69.203337,"fuente":"Inversión","ejecutado":0.0},{"divipola":"23417","Departamento":"Córdoba","Municipio":"Lorica","proyecto":"Expresiones Artísticas y Culturales","Latitud":9.240862,"Longitud":-75.815984,"Población":118451,"fuente":"Inversión","ejecutado":0.0},{"divipola":"25781","Departamento":"Cundinamarca","Municipio":"Sutatausa","proyecto":"Expresiones Artísticas y Culturales","Latitud":5.247482,"Longitud":-73.853159,"Población":7163,"fuente":"Inversión","ejecutado":0.0},{"divipola":"54003","Departamento":"Norte de Santander","Municipio":"Ábrego","proyecto":"Expresiones Artísticas y Culturales","Latitud":8.081616,"Longitud":-73.221722,"Población":35936,"fuente":"Inversión","ejecutado":0.0},{"divipola":"73675","Departamento":"Tolima","Municipio":"San Antonio","proyecto":"Expresiones Artísticas y Culturales","Latitud":3.913072,"Longitud":-75.481072,"Población":13535,"fuente":"Inversión","ejecutado":0.0},{"divipola":"05145","Departamento":"Antioquia","Municipio":"Caramanta","proyecto":"Expresiones Artísticas y Culturales","Latitud":5.54853,"Longitud":-75.643868,"Población":4951,"fuente":"Inversión","ejecutado":0.0},{"divipola":"05150","Departamento":"Antioquia","Municipio":"Carolina","proyecto":"Expresiones Artísticas y Culturales","Latitud":6.725995,"Longitud":-75.283192,"Población":4219,"fuente":"Inversión","ejecutado":0.0},{"divipola":"54498","Departamento":"Norte de Santander","Municipio":"Ocaña","proyecto":"Expresiones Artísticas y Culturales","Latitud":8.247588,"Longitud":-73.355889,"Población":135344,"fuente":"Inversión","ejecutado":65167193.0},{"divipola":"54670","Departamento":"Norte de Santander","Municipio":"San Calixto","proyecto":"Expresiones Artísticas y Culturales","Latitud":8.400152,"Longitud":-73.206053,"Población":14496,"fuente":"Inversión","Subregión PDET":"Catatumbo","ejecutado":0.0},{"divipola":"68745","Departamento":"Santander","Municipio":"Simacota","proyecto":"Expresiones Artísticas y Culturales","Latitud":6.443471,"Longitud":-73.337368,"Población":10788,"fuente":"Inversión","ejecutado":0.0},{"divipola":"70418","Departamento":"Sucre","Municipio":"Los Palmitos","proyecto":"Expresiones Artísticas y Culturales","Latitud":9.380269,"Longitud":-75.268716,"Población":24924,"fuente":"Inversión","Subregión PDET":"Montes de María","ejecutado":16583596.0},{"divipola":"85430","Departamento":"Casanare","Municipio":"Trinidad","proyecto":"Expresiones Artísticas y Culturales","Latitud":5.412178,"Longitud":-71.662812,"Población":15197,"fuente":"Inversión","ejecutado":0.0},{"divipola":"05495","Departamento":"Antioquia","Municipio":"Nechí","proyecto":"Expresiones Artísticas y Culturales","Latitud":8.094129,"Longitud":-74.77647,"Población":27901,"fuente":"Inversión","Subregión PDET":"Bajo Cauca y Nordeste Antioqueño","ejecutado":0.0},{"divipola":"15507","Departamento":"Boyacá","Municipio":"Otanche","proyecto":"Expresiones Artísticas y Culturales","Latitud":5.657536,"Longitud":-74.180965,"Población":8613,"fuente":"Inversión","ejecutado":0.0},{"divipola":"17444","Departamento":"Caldas","Municipio":"Marquetalia","proyecto":"Expresiones Artísticas y Culturales","Latitud":5.297525,"Longitud":-75.053097,"Población":13701,"fuente":"Inversión","ejecutado":0.0},{"divipola":"25599","Departamento":"Cundinamarca","Municipio":"Apulo","proyecto":"Expresiones Artísticas y Culturales","Latitud":4.520304,"Longitud":-74.593926,"Población":9885,"fuente":"Inversión","ejecutado":0.0},{"divipola":"50689","Departamento":"Meta","Municipio":"San Martín","proyecto":"Expresiones Artísticas y Culturales","Latitud":3.701899,"Longitud":-73.695812,"Población":29867,"fuente":"Inversión","ejecutado":7992000.0},{"divipola":"73520","Departamento":"Tolima","Municipio":"Palocabildo","proyecto":"Expresiones Artísticas y Culturales","Latitud":5.120972,"Longitud":-75.022198,"Población":9762,"fuente":"Inversión","ejecutado":47221279.0},{"divipola":"91669","Departamento":"Amazonas","Municipio":"Puerto Santander (Anm)","proyecto":"Expresiones Artísticas y Culturales","Latitud":-0.621184,"Longitud":-72.384213,"fuente":"Inversión","ejecutado":0.0},{"divipola":"25168","Departamento":"Cundinamarca","Municipio":"Chaguaní","proyecto":"Expresiones Artísticas y Culturales","Latitud":4.948916,"Longitud":-74.593455,"Población":4959,"fuente":"Inversión","ejecutado":0.0},{"divipola":"25386","Departamento":"Cundinamarca","Municipio":"La Mesa","proyecto":"Expresiones Artísticas y Culturales","Latitud":4.631028,"Longitud":-74.461588,"Población":40004,"fuente":"Inversión","ejecutado":0.0},{"divipola":"25402","Departamento":"Cundinamarca","Municipio":"La Vega","proyecto":"Expresiones Artísticas y Culturales","Latitud":4.993077,"Longitud":-74.331138,"Población":20691,"fuente":"Inversión","ejecutado":0.0},{"divipola":"52720","Departamento":"Nariño","Municipio":"Sapuyes","proyecto":"Expresiones Artísticas y Culturales","Latitud":1.037536,"Longitud":-77.62028,"Población":7678,"fuente":"Inversión","ejecutado":0.0},{"divipola":"68686","Departamento":"Santander","Municipio":"San Miguel","proyecto":"Expresiones Artísticas y Culturales","Latitud":6.575315,"Longitud":-72.644123,"Población":2692,"fuente":"Inversión","ejecutado":0.0},{"divipola":"76001","Departamento":"Valle del Cauca","Municipio":"Santiago de Cali","proyecto":"Expresiones Artísticas y Culturales","Latitud":3.414162,"Longitud":-76.521469,"Población":2283846,"fuente":"Inversión","ejecutado":1208488030.0},{"divipola":"86755","Departamento":"Putumayo","Municipio":"San Francisco","proyecto":"Expresiones Artísticas y Culturales","Latitud":1.174194,"Longitud":-76.879283,"Población":6332,"fuente":"Inversión","ejecutado":0.0},{"divipola":"97000","Departamento":"Vaupés","Municipio":"Departamental","proyecto":"Expresiones Artísticas y Culturales","Latitud":1.253151,"Longitud":-70.232641,"fuente":"Inversión","ejecutado":0.0},{"divipola":"05315","Departamento":"Antioquia","Municipio":"Guadalupe","proyecto":"Expresiones Artísticas y Culturales","Latitud":6.814263,"Longitud":-75.240019,"Población":6966,"fuente":"Inversión","ejecutado":0.0},{"divipola":"05607","Departamento":"Antioquia","Municipio":"Retiro","proyecto":"Expresiones Artísticas y Culturales","Latitud":6.062454,"Longitud":-75.501301,"Población":25431,"fuente":"Inversión","ejecutado":0.0},{"divipola":"13458","Departamento":"Bolívar","Municipio":"Montecristo","proyecto":"Expresiones Artísticas y Culturales","Latitud":8.299375,"Longitud":-74.468558,"Población":18370,"fuente":"Inversión","ejecutado":0.0},{"divipola":"15212","Departamento":"Boyacá","Municipio":"Coper","proyecto":"Expresiones Artísticas y Culturales","Latitud":5.475074,"Longitud":-74.045636,"Población":3832,"fuente":"Inversión","ejecutado":0.0},{"divipola":"19050","Departamento":"Cauca","Municipio":"Argelia","proyecto":"Expresiones Artísticas y Culturales","Latitud":2.257427,"Longitud":-77.24905,"Población":28128,"fuente":"Inversión","Subregión PDET":"Alto Patía y Norte del Cauca","ejecutado":5527060.0},{"divipola":"20400","Departamento":"Cesar","Municipio":"La Jagua de Ibirico","proyecto":"Expresiones Artísticas y Culturales","Latitud":9.563752,"Longitud":-73.334143,"Población":54368,"fuente":"Inversión","Subregión PDET":"Sierra Nevada - Perijá","ejecutado":0.0},{"divipola":"41799","Departamento":"Huila","Municipio":"Tello","proyecto":"Expresiones Artísticas y Culturales","Latitud":3.067538,"Longitud":-75.138773,"Población":12759,"fuente":"Inversión","ejecutado":0.0},{"divipola":"50223","Departamento":"Meta","Municipio":"Cubarral","proyecto":"Expresiones Artísticas y Culturales","Latitud":3.793614,"Longitud":-73.838724,"Población":7825,"fuente":"Inversión","ejecutado":0.0},{"divipola":"NNNNN","Departamento":"Por regionalizar","Municipio":"Por regionalizar","proyecto":"Expresiones Artísticas y Culturales","fuente":"Inversión","ejecutado":2109985464.0},{"divipola":"15104","Departamento":"Boyacá","Municipio":"Boyacá","proyecto":"Expresiones Artísticas y Culturales","Latitud":5.454578,"Longitud":-73.361945,"Población":5448,"fuente":"Inversión","ejecutado":0.0},{"divipola":"15798","Departamento":"Boyacá","Municipio":"Tenza","proyecto":"Expresiones Artísticas y Culturales","Latitud":5.077074,"Longitud":-73.420589,"Población":4087,"fuente":"Inversión","ejecutado":0.0},{"divipola":"25483","Departamento":"Cundinamarca","Municipio":"Nariño","proyecto":"Expresiones Artísticas y Culturales","Latitud":4.399837,"Longitud":-74.824732,"Población":2807,"fuente":"Inversión","ejecutado":0.0},{"divipola":"25658","Departamento":"Cundinamarca","Municipio":"San Francisco","proyecto":"Expresiones Artísticas y Culturales","Latitud":4.972917,"Longitud":-74.289672,"Población":13083,"fuente":"Inversión","ejecutado":0.0},{"divipola":"47460","Departamento":"Magdalena","Municipio":"Nueva Granada","proyecto":"Expresiones Artísticas y Culturales","Latitud":9.80186,"Longitud":-74.391841,"Población":22349,"fuente":"Inversión","ejecutado":0.0},{"divipola":"52256","Departamento":"Nariño","Municipio":"El Rosario","proyecto":"Expresiones Artísticas y Culturales","Latitud":1.742476,"Longitud":-77.334566,"Población":12935,"fuente":"Inversión","Subregión PDET":"Alto Patía y Norte del Cauca","ejecutado":5527060.0},{"divipola":"68322","Departamento":"Santander","Municipio":"Guapotá","proyecto":"Expresiones Artísticas y Culturales","Latitud":6.308588,"Longitud":-73.320699,"Población":2509,"fuente":"Inversión","ejecutado":0.0},{"divipola":"08001","Departamento":"Atlántico","Municipio":"Barranquilla","proyecto":"Expresiones Artísticas y Culturales","Latitud":10.977998,"Longitud":-74.815324,"Población":1334509,"fuente":"Inversión","ejecutado":327228146.0},{"divipola":"13030","Departamento":"Bolívar","Municipio":"Altos del Rosario","proyecto":"Expresiones Artísticas y Culturales","Latitud":8.79187,"Longitud":-74.164902,"Población":12177,"fuente":"Inversión","ejecutado":0.0},{"divipola":"17174","Departamento":"Caldas","Municipio":"Chinchiná","proyecto":"Expresiones Artísticas y Culturales","Latitud":4.985227,"Longitud":-75.607529,"Población":53609,"fuente":"Inversión","ejecutado":56852530.0},{"divipola":"19517","Departamento":"Cauca","Municipio":"Páez","proyecto":"Expresiones Artísticas y Culturales","Latitud":2.641367,"Longitud":-75.971965,"Población":49628,"fuente":"Inversión","ejecutado":0.0},{"divipola":"23001","Departamento":"Córdoba","Municipio":"Montería","proyecto":"Expresiones Artísticas y Culturales","Latitud":8.74513,"Longitud":-75.875576,"Población":527456,"fuente":"Inversión","ejecutado":97652582.0},{"divipola":"73854","Departamento":"Tolima","Municipio":"Valle de San Juan","proyecto":"Expresiones Artísticas y Culturales","Latitud":4.197494,"Longitud":-75.115669,"Población":5545,"fuente":"Inversión","ejecutado":0.0},{"divipola":"99624","Departamento":"Vichada","Municipio":"Santa Rosalía","proyecto":"Expresiones Artísticas y Culturales","Latitud":5.136393,"Longitud":-70.859499,"Población":4640,"fuente":"Inversión","ejecutado":0.0},{"divipola":"13810","Departamento":"Bolívar","Municipio":"Tiquisio","proyecto":"Expresiones Artísticas y Culturales","Latitud":8.557966,"Longitud":-74.26338,"Población":19664,"fuente":"Inversión","ejecutado":0.0},{"divipola":"17050","Departamento":"Caldas","Municipio":"Aranzazu","proyecto":"Expresiones Artísticas y Culturales","Latitud":5.271142,"Longitud":-75.491255,"Población":10863,"fuente":"Inversión","ejecutado":0.0},{"divipola":"41548","Departamento":"Huila","Municipio":"Pital","proyecto":"Expresiones Artísticas y Culturales","Latitud":2.26752,"Longitud":-75.805174,"Población":14966,"fuente":"Inversión","ejecutado":93311508.0},{"divipola":"54001","Departamento":"Norte de Santander","Municipio":"San José de Cúcuta","proyecto":"Expresiones Artísticas y Culturales","Latitud":7.905613,"Longitud":-72.508577,"Población":812176,"fuente":"Inversión","ejecutado":461337964.0},{"divipola":"54480","Departamento":"Norte de Santander","Municipio":"Mutiscua","proyecto":"Expresiones Artísticas y Culturales","Latitud":7.300469,"Longitud":-72.747169,"Población":4843,"fuente":"Inversión","ejecutado":0.0},{"divipola":"05038","Departamento":"Antioquia","Municipio":"Angostura","proyecto":"Expresiones Artísticas y Culturales","Latitud":6.885175,"Longitud":-75.335116,"Población":12121,"fuente":"Inversión","ejecutado":0.0},{"divipola":"20001","Departamento":"Cesar","Municipio":"Valledupar","proyecto":"Expresiones Artísticas y Culturales","Latitud":10.460472,"Longitud":-73.259398,"Población":567593,"fuente":"Inversión","Subregión PDET":"Sierra Nevada - Perijá","ejecutado":76832595.0},{"divipola":"25436","Departamento":"Cundinamarca","Municipio":"Manta","proyecto":"Expresiones Artísticas y Culturales","Latitud":5.009008,"Longitud":-73.540444,"Población":4361,"fuente":"Inversión","ejecutado":0.0},{"divipola":"76834","Departamento":"Valle del Cauca","Municipio":"Tuluá","proyecto":"Expresiones Artísticas y Culturales","Latitud":4.085335,"Longitud":-76.19761,"Población":232775,"fuente":"Inversión","ejecutado":0.0},{"divipola":"85010","Departamento":"Casanare","Municipio":"Aguazul","proyecto":"Expresiones Artísticas y Culturales","Latitud":5.172834,"Longitud":-72.547048,"Población":41166,"fuente":"Inversión","ejecutado":0.0},{"divipola":"08634","Departamento":"Atlántico","Municipio":"Sabanagrande","proyecto":"Expresiones Artísticas y Culturales","Latitud":10.791063,"Longitud":-74.75847,"Población":36300,"fuente":"Inversión","ejecutado":0.0},{"divipola":"15660","Departamento":"Boyacá","Municipio":"San Eduardo","proyecto":"Expresiones Artísticas y Culturales","Latitud":5.223969,"Longitud":-73.07713,"Población":1767,"fuente":"Inversión","ejecutado":0.0},{"divipola":"52585","Departamento":"Nariño","Municipio":"Pupiales","proyecto":"Expresiones Artísticas y Culturales","Latitud":0.86714,"Longitud":-77.633504,"Población":18277,"fuente":"Inversión","ejecutado":0.0},{"divipola":"76243","Departamento":"Valle del Cauca","Municipio":"El Águila","proyecto":"Expresiones Artísticas y Culturales","Latitud":4.909568,"Longitud":-76.041317,"Población":9157,"fuente":"Inversión","ejecutado":0.0},{"divipola":"20570","Departamento":"Cesar","Municipio":"Pueblo Bello","proyecto":"Expresiones Artísticas y Culturales","Latitud":10.415186,"Longitud":-73.588468,"Población":31317,"fuente":"Inversión","Subregión PDET":"Sierra Nevada - Perijá","ejecutado":10906540.0},{"divipola":"25335","Departamento":"Cundinamarca","Municipio":"Guayabetal","proyecto":"Expresiones Artísticas y Culturales","Latitud":4.215306,"Longitud":-73.815107,"Población":7542,"fuente":"Inversión","ejecutado":0.0},{"divipola":"73443","Departamento":"Tolima","Municipio":"San Sebastián de Mariquita","proyecto":"Expresiones Artísticas y Culturales","Latitud":5.199708,"Longitud":-74.889276,"Población":39526,"fuente":"Inversión","ejecutado":0.0},{"divipola":"76233","Departamento":"Valle del Cauca","Municipio":"Dagua","proyecto":"Expresiones Artísticas y Culturales","Latitud":3.657318,"Longitud":-76.68886,"Población":49793,"fuente":"Inversión","ejecutado":0.0},{"divipola":"81000","Departamento":"Arauca","Municipio":"Departamental","proyecto":"Expresiones Artísticas y Culturales","Latitud":7.077359,"Longitud":-70.74635,"fuente":"Inversión","ejecutado":0.0},{"divipola":"15723","Departamento":"Boyacá","Municipio":"Sativasur","proyecto":"Expresiones Artísticas y Culturales","Latitud":6.093183,"Longitud":-72.712435,"Población":1163,"fuente":"Inversión","ejecutado":0.0},{"divipola":"15897","Departamento":"Boyacá","Municipio":"Zetaquira","proyecto":"Expresiones Artísticas y Culturales","Latitud":5.282116,"Longitud":-73.169052,"Población":4954,"fuente":"Inversión","ejecutado":0.0},{"divipola":"19318","Departamento":"Cauca","Municipio":"Guapi","proyecto":"Expresiones Artísticas y Culturales","Latitud":2.572918,"Longitud":-77.888033,"Población":29540,"fuente":"Inversión","Subregión PDET":"Pacífico Medio","ejecutado":43059400.0},{"divipola":"20310","Departamento":"Cesar","Municipio":"González","proyecto":"Expresiones Artísticas y Culturales","Latitud":8.389604,"Longitud":-73.38004,"Población":4889,"fuente":"Inversión","ejecutado":0.0},{"divipola":"20770","Departamento":"Cesar","Municipio":"San Martín","proyecto":"Expresiones Artísticas y Culturales","Latitud":7.999855,"Longitud":-73.510914,"Población":31062,"fuente":"Inversión","ejecutado":0.0},{"divipola":"27430","Departamento":"Chocó","Municipio":"Medio Baudó","proyecto":"Expresiones Artísticas y Culturales","Latitud":5.192471,"Longitud":-76.950891,"Población":16893,"fuente":"Inversión","ejecutado":0.0},{"divipola":"54377","Departamento":"Norte de Santander","Municipio":"Labateca","proyecto":"Expresiones Artísticas y Culturales","Latitud":7.298414,"Longitud":-72.495983,"Población":7189,"fuente":"Inversión","ejecutado":0.0},{"divipola":"97777","Departamento":"Vaupés","Municipio":"Papunahua (Anm)","proyecto":"Expresiones Artísticas y Culturales","Latitud":1.907574,"Longitud":-70.761467,"fuente":"Inversión","ejecutado":6786291.0},{"divipola":"76126","Departamento":"Valle del Cauca","Municipio":"Calima","proyecto":"Expresiones Artísticas y Culturales","Latitud":3.933664,"Longitud":-76.484132,"Población":19420,"fuente":"Inversión","ejecutado":0.0},{"divipola":"13062","Departamento":"Bolívar","Municipio":"Arroyohondo","proyecto":"Expresiones Artísticas y Culturales","Latitud":10.242798,"Longitud":-75.017193,"Población":8808,"fuente":"Inversión","ejecutado":0.0},{"divipola":"25053","Departamento":"Cundinamarca","Municipio":"Arbeláez","proyecto":"Expresiones Artísticas y Culturales","Latitud":4.272534,"Longitud":-74.414901,"Población":12598,"fuente":"Inversión","ejecutado":0.0},{"divipola":"25297","Departamento":"Cundinamarca","Municipio":"Gachetá","proyecto":"Expresiones Artísticas y Culturales","Latitud":4.817022,"Longitud":-73.637007,"Población":9891,"fuente":"Inversión","ejecutado":0.0},{"divipola":"52227","Departamento":"Nariño","Municipio":"Cumbal","proyecto":"Expresiones Artísticas y Culturales","Latitud":0.906301,"Longitud":-77.792279,"Población":38792,"fuente":"Inversión","ejecutado":0.0},{"divipola":"76869","Departamento":"Valle del Cauca","Municipio":"Vijes","proyecto":"Expresiones Artísticas y Culturales","Latitud":3.698686,"Longitud":-76.441804,"Población":13291,"fuente":"Inversión","ejecutado":0.0},{"divipola":"25785","Departamento":"Cundinamarca","Municipio":"Tabio","proyecto":"Expresiones Artísticas y Culturales","Latitud":4.916832,"Longitud":-74.096461,"Población":26505,"fuente":"Inversión","ejecutado":0.0},{"divipola":"27001","Departamento":"Chocó","Municipio":"Quibdó","proyecto":"Expresiones Artísticas y Culturales","Latitud":5.690997,"Longitud":-76.626533,"Población":144610,"fuente":"Inversión","ejecutado":35434203.0},{"divipola":"52378","Departamento":"Nariño","Municipio":"La Cruz","proyecto":"Expresiones Artísticas y Culturales","Latitud":1.601318,"Longitud":-76.970504,"Población":19528,"fuente":"Inversión","ejecutado":0.0},{"divipola":"68682","Departamento":"Santander","Municipio":"San Joaquín","proyecto":"Expresiones Artísticas y Culturales","Latitud":6.427548,"Longitud":-72.867638,"Población":2307,"fuente":"Inversión","ejecutado":0.0},{"divipola":"13838","Departamento":"Bolívar","Municipio":"Turbana","proyecto":"Expresiones Artísticas y Culturales","Latitud":10.274585,"Longitud":-75.44265,"Población":17929,"fuente":"Inversión","ejecutado":0.0},{"divipola":"15673","Departamento":"Boyacá","Municipio":"San Mateo","proyecto":"Expresiones Artísticas y Culturales","Latitud":6.401683,"Longitud":-72.555264,"Población":3568,"fuente":"Inversión","ejecutado":0.0},{"divipola":"19110","Departamento":"Cauca","Municipio":"Buenos Aires","proyecto":"Expresiones Artísticas y Culturales","Latitud":3.015382,"Longitud":-76.642238,"Población":35689,"fuente":"Inversión","Subregión PDET":"Alto Patía y Norte del Cauca","ejecutado":30731708.0},{"divipola":"25407","Departamento":"Cundinamarca","Municipio":"Lenguazaque","proyecto":"Expresiones Artísticas y Culturales","Latitud":5.306131,"Longitud":-73.711512,"Población":12113,"fuente":"Inversión","ejecutado":0.0},{"divipola":"41530","Departamento":"Huila","Municipio":"Palestina","proyecto":"Expresiones Artísticas y Culturales","Latitud":1.723723,"Longitud":-76.133291,"Población":12226,"fuente":"Inversión","ejecutado":0.0},{"divipola":"47189","Departamento":"Magdalena","Municipio":"Ciénaga","proyecto":"Expresiones Artísticas y Culturales","Latitud":11.006654,"Longitud":-74.241286,"Población":133601,"fuente":"Inversión","Subregión PDET":"Sierra Nevada - Perijá","ejecutado":15000000.0},{"divipola":"15090","Departamento":"Boyacá","Municipio":"Berbeo","proyecto":"Expresiones Artísticas y Culturales","Latitud":5.227451,"Longitud":-73.12721,"Población":1700,"fuente":"Inversión","ejecutado":0.0},{"divipola":"15720","Departamento":"Boyacá","Municipio":"Sativanorte","proyecto":"Expresiones Artísticas y Culturales","Latitud":6.131132,"Longitud":-72.708458,"Población":2319,"fuente":"Inversión","ejecutado":0.0},{"divipola":"17001","Departamento":"Caldas","Municipio":"Manizales","proyecto":"Expresiones Artísticas y Culturales","Latitud":5.057655,"Longitud":-75.491018,"Población":457022,"fuente":"Inversión","ejecutado":304782927.0},{"divipola":"25398","Departamento":"Cundinamarca","Municipio":"La Peña","proyecto":"Expresiones Artísticas y Culturales","Latitud":5.200211,"Longitud":-74.393089,"Población":6957,"fuente":"Inversión","ejecutado":0.0},{"divipola":"25740","Departamento":"Cundinamarca","Municipio":"Sibaté","proyecto":"Expresiones Artísticas y Culturales","Latitud":4.489774,"Longitud":-74.258995,"Población":41054,"fuente":"Inversión","ejecutado":0.0},